[{"name": "10 Barrel Brewing Co", "brewery_type": "large", "city": "San Diego", "state": "California", "yelp_rating": null, "longitude": -117.129593, "latitude": 32.714813}, {"name": "10 Barrel Brewing Co", "brewery_type": "large", "city": "Bend", "state": "Oregon", "yelp_rating": null, "longitude": -121.281706, "latitude": 44.08683531}, {"name": "10 Barrel Brewing Co", "brewery_type": "large", "city": "Bend", "state": "Oregon", "yelp_rating": null, "longitude": -121.3288021, "latitude": 44.0575649}, {"name": "10 Barrel Brewing Co", "brewery_type": "large", "city": "Portland", "state": "Oregon", "yelp_rating": null, "longitude": -122.6855056, "latitude": 45.5259786}, {"name": "10 Barrel Brewing Co - Bend Pub", "brewery_type": "large", "city": "Bend", "state": "Oregon", "yelp_rating": null, "longitude": -121.2809536, "latitude": 44.0912109}, {"name": "10 Barrel Brewing Co - Denver", "brewery_type": "large", "city": "Denver", "state": "Colorado", "yelp_rating": null, "longitude": -104.9853655, "latitude": 39.7592508}, {"name": "13 Below Brewery", "brewery_type": "micro", "city": "Cincinnati", "state": "Ohio", "yelp_rating": null, "longitude": -84.70634815, "latitude": 39.12639764}, {"name": "13 Virtues Brewing Co", "brewery_type": "brewpub", "city": "Portland", "state": "Oregon", "yelp_rating": null, "longitude": -122.6487531, "latitude": 45.4762536}, {"name": "14er Brewing Company", "brewery_type": "proprietor", "city": "Denver", "state": "Colorado", "yelp_rating": null, "longitude": -104.9839636, "latitude": 39.7614112}, {"name": "1840 Brewing Company", "brewery_type": "micro", "city": "Milwaukee", "state": "Wisconsin", "yelp_rating": null, "longitude": -87.90606942, "latitude": 43.00436242}, {"name": "21st Amendment Brewery Cafe", "brewery_type": "brewpub", "city": "San Francisco", "state": "California", "yelp_rating": null, "longitude": -122.3925769, "latitude": 37.782448}, {"name": "21st St Brewers Bar", "brewery_type": "brewpub", "city": "Saint Louis", "state": "Missouri", "yelp_rating": null, "longitude": -90.213781, "latitude": 38.624291}, {"name": "2Kids Brewing Company", "brewery_type": "micro", "city": "San Diego", "state": "California", "yelp_rating": null, "longitude": -117.137429, "latitude": 32.896584}, {"name": "2nd Shift Brewing Co", "brewery_type": "brewpub", "city": "Saint Louis", "state": "Missouri", "yelp_rating": null, "longitude": -90.280526, "latitude": 38.621943}, {"name": "32 North Brewing Co", "brewery_type": "closed", "city": "San Diego", "state": "California", "yelp_rating": null, "longitude": -117.1649842, "latitude": 32.88313237}, {"name": "4 Hands Brewing Co", "brewery_type": "regional", "city": "Saint Louis", "state": "Missouri", "yelp_rating": null, "longitude": -90.19762012, "latitude": 38.61526593}, {"name": "4th Tap Brewing Cooperative", "brewery_type": "micro", "city": "Austin", "state": "Texas", "yelp_rating": null, "longitude": -97.7118913, "latitude": 30.3852024}, {"name": "5 North Brewing Company", "brewery_type": "brewpub", "city": "Spokane", "state": "Washington", "yelp_rating": null, "longitude": -117.4328496, "latitude": 47.71758683}, {"name": "5 Rabbit Cerveceria Inc", "brewery_type": "micro", "city": "Chicago", "state": "Illinois", "yelp_rating": null, "longitude": -87.6572069, "latitude": 41.7595502}, {"name": "612 Brew", "brewery_type": "micro", "city": "Minneapolis", "state": "Minnesota", "yelp_rating": null, "longitude": -93.2062058, "latitude": 45.000631}, {"name": "6th and La Brea", "brewery_type": "brewpub", "city": "Los Angeles", "state": "California", "yelp_rating": null, "longitude": -118.3440213, "latitude": 34.0730485}, {"name": "Able Seedhouse and Brewery", "brewery_type": "micro", "city": "Minneapolis", "state": "Minnesota", "yelp_rating": null, "longitude": -93.2510686, "latitude": 44.9993934}, {"name": "Abnormal Beer Company", "brewery_type": "micro", "city": "San Diego", "state": "California", "yelp_rating": null, "longitude": -117.08575, "latitude": 33.02391}, {"name": "Acoustic Ales Brewing Experiment", "brewery_type": "closed", "city": "San Diego", "state": "California", "yelp_rating": null, "longitude": -117.1840465, "latitude": 32.74219079}, {"name": "Actual Brewing Company, LLC", "brewery_type": "micro", "city": "Columbus", "state": "Ohio", "yelp_rating": null, "longitude": -82.9080986, "latitude": 39.9868523}, {"name": "Adelbert's Brewery LLC", "brewery_type": "micro", "city": "Austin", "state": "Texas", "yelp_rating": null, "longitude": -97.7201589, "latitude": 30.3826286}, {"name": "Aero Craft Brewing", "brewery_type": "planning", "city": "Denver", "state": "Colorado", "yelp_rating": null, "longitude": -104.984696, "latitude": 39.7391428}, {"name": "Alameda Brewing Co", "brewery_type": "micro", "city": "Portland", "state": "Oregon", "yelp_rating": null, "longitude": -122.6412495, "latitude": 45.48882655}, {"name": "Alameda Brewing Co", "brewery_type": "micro", "city": "Portland", "state": "Oregon", "yelp_rating": null, "longitude": -122.6136209, "latitude": 45.54849565}, {"name": "Alaro Craft Brewery", "brewery_type": "brewpub", "city": "Sacramento", "state": "California", "yelp_rating": null, "longitude": -121.4811835, "latitude": 38.57323961}, {"name": "Aleman Brewing", "brewery_type": "micro", "city": "Chicago", "state": "Illinois", "yelp_rating": null, "longitude": -87.74301213, "latitude": 41.94087994}, {"name": "AleSmith Brewing Co", "brewery_type": "regional", "city": "San Diego", "state": "California", "yelp_rating": null, "longitude": -117.1495496, "latitude": 32.88858458}, {"name": "Align Brewing Co", "brewery_type": "micro", "city": "San Diego", "state": "California", "yelp_rating": null, "longitude": -117.137429, "latitude": 32.896584}, {"name": "All Rise Brewing Co", "brewery_type": "brewpub", "city": "Chicago", "state": "Illinois", "yelp_rating": null, "longitude": -87.6667328, "latitude": 41.8864021}, {"name": "Alma Mader Brewing", "brewery_type": "micro", "city": "Kansas City", "state": "Missouri", "yelp_rating": null, "longitude": -94.599389, "latitude": 39.082495}, {"name": "Alpha Brewing Co.", "brewery_type": "micro", "city": "Saint Louis", "state": "Missouri", "yelp_rating": null, "longitude": -90.26236838, "latitude": 38.59861817}, {"name": "Alpine Beer Company", "brewery_type": "brewpub", "city": "San Diego", "state": "California", "yelp_rating": null, "longitude": -117.113975, "latitude": 32.9167796}, {"name": "Alta Brewing Company", "brewery_type": "micro", "city": "San Diego", "state": "California", "yelp_rating": null, "longitude": -117.1414712, "latitude": 32.7018758}, {"name": "Alternation Brewing Company", "brewery_type": "micro", "city": "Denver", "state": "Colorado", "yelp_rating": null, "longitude": -104.9876117, "latitude": 39.68866374}, {"name": "Amerisports Brew Pub", "brewery_type": "brewpub", "city": "Kansas City", "state": "Missouri", "yelp_rating": null, "longitude": -94.484526, "latitude": 39.150682}, {"name": "Amplified Ale Works", "brewery_type": "brewpub", "city": "San Diego", "state": "California", "yelp_rating": null, "longitude": -117.2511178, "latitude": 32.7719729}, {"name": "Amplified Ale Works Miramar Studio", "brewery_type": "brewpub", "city": "San Diego", "state": "California", "yelp_rating": null, "longitude": -117.1570695, "latitude": 32.88687598}, {"name": "Anchor Brewing Co", "brewery_type": "large", "city": "San Francisco", "state": "California", "yelp_rating": null, "longitude": -122.4011065, "latitude": 37.7630772}, {"name": "Angel City Brewery", "brewery_type": "micro", "city": "Los Angeles", "state": "California", "yelp_rating": null, "longitude": -118.237715, "latitude": 34.04627065}, {"name": "Anheuser-Busch InBev", "brewery_type": "large", "city": "Saint Louis", "state": "Missouri", "yelp_rating": null, "longitude": -90.2118998, "latitude": 38.5954536}, {"name": "Anheuser-Busch Inc \u00e2\u0080\u0093 Columbus", "brewery_type": "large", "city": "Columbus", "state": "Ohio", "yelp_rating": null, "longitude": -82.99307, "latitude": 40.102197}, {"name": "Antiques on High", "brewery_type": "micro", "city": "Columbus", "state": "Ohio", "yelp_rating": null, "longitude": -82.99774, "latitude": 39.9476}, {"name": "Argus Brewery", "brewery_type": "micro", "city": "Chicago", "state": "Illinois", "yelp_rating": null, "longitude": -87.61206845, "latitude": 41.68854885}, {"name": "Arlington Club", "brewery_type": "micro", "city": "Portland", "state": "Oregon", "yelp_rating": null, "longitude": -122.6818596, "latitude": 45.51786855}, {"name": "Arts District Brewing Company", "brewery_type": "brewpub", "city": "Los Angeles", "state": "California", "yelp_rating": null, "longitude": -118.2357029, "latitude": 34.04505443}, {"name": "Aslan Brewing Seattle", "brewery_type": "micro", "city": "Seattle", "state": "Washington", "yelp_rating": null, "longitude": -122.354134, "latitude": 47.652201}, {"name": "Assembly brewing", "brewery_type": "planning", "city": "Portland", "state": "Oregon", "yelp_rating": null, "longitude": -122.6003912, "latitude": 45.491048}, {"name": "At Ease Brewing", "brewery_type": "planning", "city": "Sacramento", "state": "California", "yelp_rating": null, "longitude": -121.4943996, "latitude": 38.5815719}, {"name": "Austin Beerworks", "brewery_type": "regional", "city": "Austin", "state": "Texas", "yelp_rating": null, "longitude": -97.72984444, "latitude": 30.3795705}, {"name": "Automatic Brewing Co. / Blind Lady Alehouse", "brewery_type": "brewpub", "city": "San Diego", "state": "California", "yelp_rating": null, "longitude": -117.120151, "latitude": 32.763588}, {"name": "Back Pedal Brewing Company", "brewery_type": "micro", "city": "Portland", "state": "Oregon", "yelp_rating": null, "longitude": -122.6856562, "latitude": 45.52597595}, {"name": "Bad Jimmy's Brewing Co", "brewery_type": "micro", "city": "Seattle", "state": "Washington", "yelp_rating": null, "longitude": -122.3653569, "latitude": 47.66133224}, {"name": "Bad Tom Smith Brewing", "brewery_type": "micro", "city": "Cincinnati", "state": "Ohio", "yelp_rating": null, "longitude": -84.41803086, "latitude": 39.11995755}, {"name": "Bad Tom Smith Brewing", "brewery_type": "brewpub", "city": "Cleveland", "state": "Ohio", "yelp_rating": null, "longitude": -81.7051638, "latitude": 41.4861772}, {"name": "Baerlic Brewing Co", "brewery_type": "micro", "city": "Portland", "state": "Oregon", "yelp_rating": null, "longitude": -122.6550828, "latitude": 45.50680595}, {"name": "Ballast Point Brewing Co / Home Brew Mart", "brewery_type": "large", "city": "San Diego", "state": "California", "yelp_rating": null, "longitude": -117.1953344, "latitude": 32.76692137}, {"name": "Ballast Point Brewing Company", "brewery_type": "large", "city": "San Diego", "state": "California", "yelp_rating": null, "longitude": -117.1587251, "latitude": 32.88798083}, {"name": "Ballast Point Brewing Company", "brewery_type": "large", "city": "San Diego", "state": "California", "yelp_rating": null, "longitude": -117.157081, "latitude": 32.889641}, {"name": "Ballast Point Brewing Company - Little Italy", "brewery_type": "large", "city": "San Diego", "state": "California", "yelp_rating": null, "longitude": -117.169738, "latitude": 32.727777}, {"name": "Band Of Bohemia", "brewery_type": "brewpub", "city": "Chicago", "state": "Illinois", "yelp_rating": null, "longitude": -87.6750827, "latitude": 41.9675954}, {"name": "Banded Oak Brewing Company", "brewery_type": "brewpub", "city": "Denver", "state": "Colorado", "yelp_rating": null, "longitude": -104.9874187, "latitude": 39.7282897}, {"name": "Barebottle Brewing Company", "brewery_type": "micro", "city": "San Francisco", "state": "California", "yelp_rating": null, "longitude": -122.4090405, "latitude": 37.74000915}, {"name": "Barley's Brewing Company (Ale House No. 1)", "brewery_type": "brewpub", "city": "Columbus", "state": "Ohio", "yelp_rating": null, "longitude": -83.0027669, "latitude": 39.9719408}, {"name": "Barn Brewery", "brewery_type": "micro", "city": "San Diego", "state": "California", "yelp_rating": null, "longitude": -117.1324165, "latitude": 32.75568723}, {"name": "Barrel Head Brewhouse", "brewery_type": "brewpub", "city": "San Francisco", "state": "California", "yelp_rating": null, "longitude": -122.4461033, "latitude": 37.77576514}, {"name": "Bartlett Hall", "brewery_type": "brewpub", "city": "San Francisco", "state": "California", "yelp_rating": null, "longitude": -122.4087293, "latitude": 37.78640638}, {"name": "Base Camp Brewing Co", "brewery_type": "micro", "city": "Portland", "state": "Oregon", "yelp_rating": null, "longitude": -122.6561108, "latitude": 45.5198818}, {"name": "Bauhaus Brew Labs", "brewery_type": "micro", "city": "Minneapolis", "state": "Minnesota", "yelp_rating": null, "longitude": -93.237365, "latitude": 45.042082}, {"name": "Bay City Brewing Co.", "brewery_type": "micro", "city": "San Diego", "state": "California", "yelp_rating": null, "longitude": -117.2117833, "latitude": 32.7580759}, {"name": "Beach Chalet Brewing Co", "brewery_type": "brewpub", "city": "San Francisco", "state": "California", "yelp_rating": null, "longitude": -122.502981, "latitude": 37.7252994}, {"name": "Belltown Brewery", "brewery_type": "closed", "city": "Seattle", "state": "Washington", "yelp_rating": null, "longitude": -122.3456669, "latitude": 47.6142953}, {"name": "Bellwether Brewing Co", "brewery_type": "micro", "city": "Spokane", "state": "Washington", "yelp_rating": null, "longitude": -117.4265497, "latitude": 47.67645574}, {"name": "Benchmark Brewing Co", "brewery_type": "closed", "city": "San Diego", "state": "California", "yelp_rating": null, "longitude": -117.1020694, "latitude": 32.78737066}, {"name": "Bend Brewing Co", "brewery_type": "brewpub", "city": "Bend", "state": "Oregon", "yelp_rating": null, "longitude": -121.3139312, "latitude": 44.06051115}, {"name": "Bend Brewing High Desert", "brewery_type": "closed", "city": "Bend", "state": "Oregon", "yelp_rating": null, "longitude": -121.2914842, "latitude": 44.08727607}, {"name": "Bennidito's Brewpub", "brewery_type": "brewpub", "city": "Spokane", "state": "Washington", "yelp_rating": null, "longitude": -117.2178526, "latitude": 47.6571208}, {"name": "Best of Hands Barrelhouse", "brewery_type": "micro", "city": "Seattle", "state": "Washington", "yelp_rating": null, "longitude": -122.3763875, "latitude": 47.53628883}, {"name": "Bevel Craft Brewing", "brewery_type": "planning", "city": "Bend", "state": "Oregon", "yelp_rating": null, "longitude": -121.2917516, "latitude": 44.04614868}, {"name": "Bewilder Brewing Co", "brewery_type": "brewpub", "city": "Salt Lake City", "state": "Utah", "yelp_rating": null, "longitude": -111.9017072, "latitude": 40.7594039}, {"name": "Bierstadt Lagerhaus", "brewery_type": "brewpub", "city": "Denver", "state": "Colorado", "yelp_rating": null, "longitude": -104.9838084, "latitude": 39.7630094}, {"name": "Big Head Brewing Co.", "brewery_type": "micro", "city": "Milwaukee", "state": "Wisconsin", "yelp_rating": null, "longitude": -87.9201437, "latitude": 43.0429687}, {"name": "Big Sexy Brewing Company", "brewery_type": "micro", "city": "Sacramento", "state": "California", "yelp_rating": null, "longitude": -121.3757237, "latitude": 38.52149864}, {"name": "Big Stump Brewing Company", "brewery_type": "micro", "city": "Sacramento", "state": "California", "yelp_rating": null, "longitude": -121.4263334, "latitude": 38.68887875}, {"name": "Big Time Brewery", "brewery_type": "brewpub", "city": "Seattle", "state": "Washington", "yelp_rating": null, "longitude": -122.3135759, "latitude": 47.65785225}, {"name": "Birreria @ Eataly", "brewery_type": "brewpub", "city": "Chicago", "state": "Illinois", "yelp_rating": null, "longitude": -87.6262332, "latitude": 41.89209845}, {"name": "Bistronomy B2B Craft Brewery", "brewery_type": "brewpub", "city": "Albuquerque", "state": "New Mexico", "yelp_rating": null, "longitude": -106.6102147, "latitude": 35.080354}, {"name": "Bitter Brothers Brewing Co.", "brewery_type": "micro", "city": "San Diego", "state": "California", "yelp_rating": null, "longitude": -117.2202906, "latitude": 32.81614831}, {"name": "BKS Artisan Ales", "brewery_type": "micro", "city": "Kansas City", "state": "Missouri", "yelp_rating": null, "longitude": -94.493961, "latitude": 39.010093}, {"name": "Black Beak Brewing", "brewery_type": "planning", "city": "Denver", "state": "Colorado", "yelp_rating": null, "longitude": -104.984696, "latitude": 39.7391428}, {"name": "Black Hammer Brewing", "brewery_type": "micro", "city": "San Francisco", "state": "California", "yelp_rating": null, "longitude": -122.3969947, "latitude": 37.780655}, {"name": "Black Husky Brewing LLC", "brewery_type": "micro", "city": "Milwaukee", "state": "Wisconsin", "yelp_rating": null, "longitude": -87.90008457, "latitude": 43.071024}, {"name": "Black Label Brewing Company", "brewery_type": "micro", "city": "Spokane", "state": "Washington", "yelp_rating": null, "longitude": -117.4114587, "latitude": 47.65900318}, {"name": "Black Project Spontaneous & Wild Ales", "brewery_type": "micro", "city": "Denver", "state": "Colorado", "yelp_rating": null, "longitude": -104.9872018, "latitude": 39.6933607}, {"name": "Black Sands Brewery", "brewery_type": "micro", "city": "San Francisco", "state": "California", "yelp_rating": null, "longitude": -122.433863, "latitude": 37.7715719}, {"name": "Black Shirt Brewing Co", "brewery_type": "brewpub", "city": "Denver", "state": "Colorado", "yelp_rating": null, "longitude": -104.9729604, "latitude": 39.7698142}, {"name": "Black Sky Brewery", "brewery_type": "brewpub", "city": "Denver", "state": "Colorado", "yelp_rating": null, "longitude": -104.9983183, "latitude": 39.7239431}, {"name": "Black Star Co-op", "brewery_type": "brewpub", "city": "Austin", "state": "Texas", "yelp_rating": null, "longitude": -97.718977, "latitude": 30.3383262}, {"name": "Blue Moon Brewery", "brewery_type": "large", "city": "Denver", "state": "Colorado", "yelp_rating": null, "longitude": -104.9769417, "latitude": 39.7735561}, {"name": "Blue Owl Brewing", "brewery_type": "micro", "city": "Austin", "state": "Texas", "yelp_rating": null, "longitude": -97.7189581, "latitude": 30.2545583}, {"name": "Bluebird Microcreamery and Brewery", "brewery_type": "micro", "city": "Seattle", "state": "Washington", "yelp_rating": null, "longitude": -122.355108, "latitude": 47.6826657}, {"name": "Bluewood Brewing", "brewery_type": "micro", "city": "Saint Louis", "state": "Missouri", "yelp_rating": null, "longitude": -90.216631, "latitude": 38.601767}, {"name": "Boese Brothers Brewing", "brewery_type": "micro", "city": "Albuquerque", "state": "New Mexico", "yelp_rating": null, "longitude": -106.654295, "latitude": 35.083957}, {"name": "Bombs Away Beer Company", "brewery_type": "brewpub", "city": "Albuquerque", "state": "New Mexico", "yelp_rating": null, "longitude": -106.53905, "latitude": 35.070904}, {"name": "Bonaventure Brewing Co", "brewery_type": "brewpub", "city": "Los Angeles", "state": "California", "yelp_rating": null, "longitude": -118.2562113, "latitude": 34.05314634}, {"name": "Boneyard Beer Co", "brewery_type": "micro", "city": "Bend", "state": "Oregon", "yelp_rating": null, "longitude": -121.3080908, "latitude": 44.05412648}, {"name": "Boneyard Beer Co", "brewery_type": "brewpub", "city": "Bend", "state": "Oregon", "yelp_rating": null, "longitude": -121.3065353, "latitude": 44.07094734}, {"name": "Boom Island Brewing Company", "brewery_type": "micro", "city": "Minneapolis", "state": "Minnesota", "yelp_rating": null, "longitude": -93.2739955, "latitude": 44.9855585}, {"name": "Boomtown Brewery", "brewery_type": "micro", "city": "Los Angeles", "state": "California", "yelp_rating": null, "longitude": -118.233179, "latitude": 34.0507711}, {"name": "Border Brewing Company", "brewery_type": "micro", "city": "Kansas City", "state": "Missouri", "yelp_rating": null, "longitude": -94.5786142, "latitude": 39.0917581}, {"name": "Border X Brewing", "brewery_type": "micro", "city": "San Diego", "state": "California", "yelp_rating": null, "longitude": -117.1397541, "latitude": 32.6982174}, {"name": "Border X Logan", "brewery_type": "brewpub", "city": "San Diego", "state": "California", "yelp_rating": null, "longitude": -117.1397541, "latitude": 32.6982174}, {"name": "Boss Dog Brewing", "brewery_type": "brewpub", "city": "Cleveland", "state": "Ohio", "yelp_rating": null, "longitude": -81.56529555, "latitude": 41.50030645}, {"name": "Boston Beer Co - DBA Samuel Adams Brewing Co", "brewery_type": "regional", "city": "Cincinnati", "state": "Ohio", "yelp_rating": null, "longitude": -84.5207651, "latitude": 39.11257}, {"name": "Boulevard Brewing Co", "brewery_type": "regional", "city": "Kansas City", "state": "Missouri", "yelp_rating": null, "longitude": -94.59682307, "latitude": 39.08196355}, {"name": "Boxing Bear Brewing Company", "brewery_type": "brewpub", "city": "Albuquerque", "state": "New Mexico", "yelp_rating": null, "longitude": -106.6460549, "latitude": 35.2036804}, {"name": "Breakside Brewery", "brewery_type": "brewpub", "city": "Portland", "state": "Oregon", "yelp_rating": null, "longitude": -122.657117, "latitude": 45.5716938}, {"name": "Breakside Brewery Slabtown", "brewery_type": "brewpub", "city": "Portland", "state": "Oregon", "yelp_rating": null, "longitude": -122.6966131, "latitude": 45.53384986}, {"name": "Brew Hub Taproom", "brewery_type": "brewpub", "city": "Saint Louis", "state": "Missouri", "yelp_rating": null, "longitude": -90.28300053, "latitude": 38.63049786}, {"name": "Brewdog Short North & Kennels", "brewery_type": "brewpub", "city": "Columbus", "state": "Ohio", "yelp_rating": null, "longitude": -83.00579, "latitude": 39.98637}, {"name": "Brewed By Gnomes", "brewery_type": "contract", "city": "Portland", "state": "Oregon", "yelp_rating": null, "longitude": -122.6308531, "latitude": 45.51021595}, {"name": "Brewery 26", "brewery_type": "micro", "city": "Portland", "state": "Oregon", "yelp_rating": null, "longitude": -122.60275, "latitude": 45.49758}, {"name": "Brewery Emperial", "brewery_type": "brewpub", "city": "Kansas City", "state": "Missouri", "yelp_rating": null, "longitude": -94.57886314, "latitude": 39.09119471}, {"name": "Brick and Barrel", "brewery_type": "micro", "city": "Cleveland", "state": "Ohio", "yelp_rating": null, "longitude": -81.7008861, "latitude": 41.4895629}, {"name": "Brick West Brewing Co", "brewery_type": "micro", "city": "Spokane", "state": "Washington", "yelp_rating": null, "longitude": -117.4318785, "latitude": 47.65762329}, {"name": "Bridge 99 Brewery", "brewery_type": "micro", "city": "Bend", "state": "Oregon", "yelp_rating": null, "longitude": -121.2916707, "latitude": 44.09103738}, {"name": "BridgePort Brewing Co", "brewery_type": "regional", "city": "Portland", "state": "Oregon", "yelp_rating": null, "longitude": -122.6848601, "latitude": 45.53133335}, {"name": "Brink Brewing Company", "brewery_type": "micro", "city": "Cincinnati", "state": "Ohio", "yelp_rating": null, "longitude": -84.545876, "latitude": 39.192788}, {"name": "Broken Trail Brewery & Distillery", "brewery_type": "micro", "city": "Albuquerque", "state": "New Mexico", "yelp_rating": null, "longitude": -106.6175091, "latitude": 35.11440682}, {"name": "Buffalo Water Beer Co", "brewery_type": "contract", "city": "Milwaukee", "state": "Wisconsin", "yelp_rating": null, "longitude": -87.9092089, "latitude": 43.0341323}, {"name": "Bull & Bush Brewery", "brewery_type": "brewpub", "city": "Denver", "state": "Colorado", "yelp_rating": null, "longitude": -104.9488456, "latitude": 39.7116689}, {"name": "Burdick Brewery", "brewery_type": "closed", "city": "Seattle", "state": "Washington", "yelp_rating": null, "longitude": -122.3145617, "latitude": 47.5267286}, {"name": "Burgundian Brewing Co.", "brewery_type": "micro", "city": "Denver", "state": "Colorado", "yelp_rating": null, "longitude": -105.0024095, "latitude": 39.7825168}, {"name": "Burke-Gilman Brewing", "brewery_type": "micro", "city": "Seattle", "state": "Washington", "yelp_rating": null, "longitude": -122.2880715, "latitude": 47.66183205}, {"name": "Burnside Brewing Co", "brewery_type": "micro", "city": "Portland", "state": "Oregon", "yelp_rating": null, "longitude": -122.6584695, "latitude": 45.5233261}, {"name": "Burnt City Brewing", "brewery_type": "micro", "city": "Chicago", "state": "Illinois", "yelp_rating": null, "longitude": -87.65722732, "latitude": 41.93185255}, {"name": "Calibration Brewery", "brewery_type": "brewpub", "city": "Kansas City", "state": "Missouri", "yelp_rating": null, "longitude": -94.578762, "latitude": 39.141723}, {"name": "California Wild Ales", "brewery_type": "contract", "city": "San Diego", "state": "California", "yelp_rating": null, "longitude": -117.2146488, "latitude": 32.905002}, {"name": "Call To Arms Brewing Company", "brewery_type": "micro", "city": "Denver", "state": "Colorado", "yelp_rating": null, "longitude": -105.0435373, "latitude": 39.7788541}, {"name": "Canteen Brewhouse", "brewery_type": "micro", "city": "Albuquerque", "state": "New Mexico", "yelp_rating": null, "longitude": -106.617653, "latitude": 35.12025411}, {"name": "Cascade Brewing", "brewery_type": "brewpub", "city": "Portland", "state": "Oregon", "yelp_rating": null, "longitude": -122.699417, "latitude": 45.478513}, {"name": "Cascade Brewing Barrel House", "brewery_type": "micro", "city": "Portland", "state": "Oregon", "yelp_rating": null, "longitude": -122.6560057, "latitude": 45.5167536}, {"name": "Casual Animal", "brewery_type": "micro", "city": "Kansas City", "state": "Missouri", "yelp_rating": null, "longitude": -94.57977386, "latitude": 39.0924045}, {"name": "Cathedral Square Brewery", "brewery_type": "closed", "city": "Saint Louis", "state": "Missouri", "yelp_rating": null, "longitude": -90.2439837, "latitude": 38.6394897}, {"name": "Cellarmaker Brewing Company", "brewery_type": "micro", "city": "San Francisco", "state": "California", "yelp_rating": null, "longitude": -122.4106996, "latitude": 37.7771589}, {"name": "Center Ice Brewing Company", "brewery_type": "micro", "city": "Saint Louis", "state": "Missouri", "yelp_rating": null, "longitude": -90.22430637, "latitude": 38.63530006}, {"name": "Central Machine Works", "brewery_type": "micro", "city": "Austin", "state": "Texas", "yelp_rating": null, "longitude": -97.7037665, "latitude": 30.2520225}, {"name": "Cerebral Brewing", "brewery_type": "micro", "city": "Denver", "state": "Colorado", "yelp_rating": null, "longitude": -104.9451783, "latitude": 39.73968253}, {"name": "Chain Reaction Brewing Company", "brewery_type": "micro", "city": "Denver", "state": "Colorado", "yelp_rating": null, "longitude": -105.001629, "latitude": 39.69879376}, {"name": "Chicago Beer Company", "brewery_type": "contract", "city": "Chicago", "state": "Illinois", "yelp_rating": null, "longitude": -87.65589165, "latitude": 41.88434}, {"name": "Christian Moerlein Brewing Co", "brewery_type": "regional", "city": "Cincinnati", "state": "Ohio", "yelp_rating": null, "longitude": -84.51533432, "latitude": 39.11322509}, {"name": "Circle 9 Brewing", "brewery_type": "micro", "city": "San Diego", "state": "California", "yelp_rating": null, "longitude": -117.160822, "latitude": 32.82600737}, {"name": "Circle 9 Brewing", "brewery_type": "closed", "city": "San Diego", "state": "California", "yelp_rating": null, "longitude": -117.160822, "latitude": 32.82600737}, {"name": "Citizen Brewers", "brewery_type": "micro", "city": "San Diego", "state": "California", "yelp_rating": null, "longitude": -117.1003579, "latitude": 32.78109987}, {"name": "City Barrel Brewing + Kitchen", "brewery_type": "brewpub", "city": "Kansas City", "state": "Missouri", "yelp_rating": null, "longitude": -94.575464, "latitude": 39.091892}, {"name": "City Lights Brewing Co.", "brewery_type": "micro", "city": "Milwaukee", "state": "Wisconsin", "yelp_rating": null, "longitude": -88.0118646, "latitude": 43.0339815}, {"name": "Civil Life Brewing Company", "brewery_type": "brewpub", "city": "Saint Louis", "state": "Missouri", "yelp_rating": null, "longitude": -90.25807165, "latitude": 38.5908973}, {"name": "Cleveland Brewing Company @ Butcher and The Brewer", "brewery_type": "brewpub", "city": "Cleveland", "state": "Ohio", "yelp_rating": null, "longitude": -81.690036, "latitude": 41.4991502}, {"name": "Clockwerks Brewing", "brewery_type": "brewpub", "city": "Minneapolis", "state": "Minnesota", "yelp_rating": null, "longitude": -93.27195031, "latitude": 44.98071827}, {"name": "Cloudburst Brewing", "brewery_type": "micro", "city": "Seattle", "state": "Washington", "yelp_rating": null, "longitude": -122.3452717, "latitude": 47.6116138}, {"name": "Cloudburst Brewing on Shilshole", "brewery_type": "micro", "city": "Seattle", "state": "Washington", "yelp_rating": null, "longitude": -122.3865589, "latitude": 47.66806551}, {"name": "Coalition Brewing Co", "brewery_type": "closed", "city": "Portland", "state": "Oregon", "yelp_rating": null, "longitude": -122.6381854, "latitude": 45.5225809}, {"name": "Cold Crash Brewing", "brewery_type": "closed", "city": "Seattle", "state": "Washington", "yelp_rating": null, "longitude": -122.39395, "latitude": 47.56329}, {"name": "Collision Bend Brewing Co", "brewery_type": "brewpub", "city": "Cleveland", "state": "Ohio", "yelp_rating": null, "longitude": -81.7039719, "latitude": 41.49884829}, {"name": "Columbia River Brewing Co", "brewery_type": "brewpub", "city": "Portland", "state": "Oregon", "yelp_rating": null, "longitude": -122.6217524, "latitude": 45.5357321}, {"name": "Columbus Brewing Co", "brewery_type": "regional", "city": "Columbus", "state": "Ohio", "yelp_rating": null, "longitude": -83.0692897, "latitude": 39.9675898}, {"name": "Commonhouse Ales", "brewery_type": "micro", "city": "Columbus", "state": "Ohio", "yelp_rating": null, "longitude": -83.00367741, "latitude": 39.95045334}, {"name": "Company Brewing Co", "brewery_type": "brewpub", "city": "Milwaukee", "state": "Wisconsin", "yelp_rating": null, "longitude": -87.90182086, "latitude": 43.0672919}, {"name": "Constellation Brands", "brewery_type": "closed", "city": "San Diego", "state": "California", "yelp_rating": null, "longitude": -117.1578979, "latitude": 32.88808261}, {"name": "Coronado Brewing Co - Production Facility", "brewery_type": "regional", "city": "San Diego", "state": "California", "yelp_rating": null, "longitude": -117.094383, "latitude": 32.753124}, {"name": "Corridor Brewery & Provisions", "brewery_type": "brewpub", "city": "Chicago", "state": "Illinois", "yelp_rating": null, "longitude": -87.6643524, "latitude": 41.9447594}, {"name": "Council Brewing - Magic Factory", "brewery_type": "micro", "city": "San Diego", "state": "California", "yelp_rating": null, "longitude": -117.1544092, "latitude": 32.83466296}, {"name": "Council Brewing Company", "brewery_type": "micro", "city": "San Diego", "state": "California", "yelp_rating": null, "longitude": -117.1544092, "latitude": 32.83466296}, {"name": "Counterbalance Brewing Company", "brewery_type": "micro", "city": "Seattle", "state": "Washington", "yelp_rating": null, "longitude": -122.3279252, "latitude": 47.54555555}, {"name": "Craft Kitchen and Brewery", "brewery_type": "brewpub", "city": "Bend", "state": "Oregon", "yelp_rating": null, "longitude": -121.2903651, "latitude": 44.08719318}, {"name": "Crazy Mountain Brewing Co", "brewery_type": "regional", "city": "Denver", "state": "Colorado", "yelp_rating": null, "longitude": -105.0002926, "latitude": 39.72361171}, {"name": "Crux Fermentation Project", "brewery_type": "regional", "city": "Bend", "state": "Oregon", "yelp_rating": null, "longitude": -121.3079657, "latitude": 44.05092629}, {"name": "Crux Fermentation Project - Crux2", "brewery_type": "micro", "city": "Bend", "state": "Oregon", "yelp_rating": null, "longitude": -121.2824469, "latitude": 44.08947729}, {"name": "Cruz Blanca Brewery", "brewery_type": "brewpub", "city": "Chicago", "state": "Illinois", "yelp_rating": null, "longitude": -87.6501403, "latitude": 41.8846013}, {"name": "Culmination Brewing Co", "brewery_type": "micro", "city": "Portland", "state": "Oregon", "yelp_rating": null, "longitude": -122.64393, "latitude": 45.52893}, {"name": "Dangerous Man Brewing Co", "brewery_type": "micro", "city": "Minneapolis", "state": "Minnesota", "yelp_rating": null, "longitude": -93.26664, "latitude": 45.046388}, {"name": "Day Block Brewing Company", "brewery_type": "brewpub", "city": "Minneapolis", "state": "Minnesota", "yelp_rating": null, "longitude": -93.253074, "latitude": 44.9751757}, {"name": "Declaration Brewing Company", "brewery_type": "micro", "city": "Denver", "state": "Colorado", "yelp_rating": null, "longitude": -104.9910056, "latitude": 39.67973155}, {"name": "Deft Brewing", "brewery_type": "micro", "city": "San Diego", "state": "California", "yelp_rating": null, "longitude": -117.1993433, "latitude": 32.76435432}, {"name": "Denver Beer Co", "brewery_type": "micro", "city": "Denver", "state": "Colorado", "yelp_rating": null, "longitude": -105.0072502, "latitude": 39.7583143}, {"name": "Denver Beer Co Canworks", "brewery_type": "micro", "city": "Denver", "state": "Colorado", "yelp_rating": null, "longitude": -105.0008302, "latitude": 39.7769429}, {"name": "Derive Brewing company", "brewery_type": "micro", "city": "Columbus", "state": "Ohio", "yelp_rating": null, "longitude": -83.01185, "latitude": 40.01939}, {"name": "Deschutes Brewery", "brewery_type": "regional", "city": "Bend", "state": "Oregon", "yelp_rating": null, "longitude": -121.3246184, "latitude": 44.04780638}, {"name": "Deschutes Brewery & Public House", "brewery_type": "brewpub", "city": "Bend", "state": "Oregon", "yelp_rating": null, "longitude": -121.3113845, "latitude": 44.05941415}, {"name": "Deschutes Brewery & Public House", "brewery_type": "brewpub", "city": "Portland", "state": "Oregon", "yelp_rating": null, "longitude": -122.6818808, "latitude": 45.52468}, {"name": "Desert Edge Brewery", "brewery_type": "brewpub", "city": "Salt Lake City", "state": "Utah", "yelp_rating": null, "longitude": -111.8750211, "latitude": 40.75639108}, {"name": "DeSteeg Brewing Co/Blind Faith Brewing", "brewery_type": "micro", "city": "Denver", "state": "Colorado", "yelp_rating": null, "longitude": -105.0438193, "latitude": 39.7760619}, {"name": "Device Brewing Company", "brewery_type": "micro", "city": "Sacramento", "state": "California", "yelp_rating": null, "longitude": -121.4059371, "latitude": 38.53949252}, {"name": "Dialogue Brewing", "brewery_type": "micro", "city": "Albuquerque", "state": "New Mexico", "yelp_rating": null, "longitude": -106.6456104, "latitude": 35.0976942}, {"name": "Diebolt Brewing", "brewery_type": "micro", "city": "Denver", "state": "Colorado", "yelp_rating": null, "longitude": -105.0032079, "latitude": 39.770332}, {"name": "Dirty Couch Brewing", "brewery_type": "micro", "city": "Seattle", "state": "Washington", "yelp_rating": null, "longitude": -122.392155, "latitude": 47.66192056}, {"name": "District 14 Brewery & Pub", "brewery_type": "brewpub", "city": "Milwaukee", "state": "Wisconsin", "yelp_rating": null, "longitude": -87.9095587, "latitude": 42.9581912}, {"name": "Division 23 Brewing", "brewery_type": "micro", "city": "San Diego", "state": "California", "yelp_rating": null, "longitude": -117.162908, "latitude": 32.890353}, {"name": "Dos Luces Brewery", "brewery_type": "contract", "city": "Denver", "state": "Colorado", "yelp_rating": null, "longitude": -104.9874923, "latitude": 39.6830067}, {"name": "Fifty West Brewing Co", "brewery_type": "micro", "city": "Cincinnati", "state": "Ohio", "yelp_rating": null, "longitude": -84.4134859, "latitude": 39.11952}, {"name": "Double Shift Brewing", "brewery_type": "micro", "city": "Kansas City", "state": "Missouri", "yelp_rating": null, "longitude": -94.57868373, "latitude": 39.09170494}, {"name": "Dovetail Brewery", "brewery_type": "micro", "city": "Chicago", "state": "Illinois", "yelp_rating": null, "longitude": -87.6743858, "latitude": 41.9561589}, {"name": "Draught House Pub and Brewery", "brewery_type": "micro", "city": "Austin", "state": "Texas", "yelp_rating": null, "longitude": -97.7428611, "latitude": 30.3110713}, {"name": "Dry River Brewing", "brewery_type": "micro", "city": "Los Angeles", "state": "California", "yelp_rating": null, "longitude": -118.2233015, "latitude": 34.03638739}, {"name": "Duck Foot Brewing Co.", "brewery_type": "micro", "city": "San Diego", "state": "California", "yelp_rating": null, "longitude": -117.1562181, "latitude": 32.88474835}, {"name": "Eagle Park Brewing Company", "brewery_type": "brewpub", "city": "Milwaukee", "state": "Wisconsin", "yelp_rating": null, "longitude": -87.90143961, "latitude": 43.0542106}, {"name": "Eagle Rock Brewery", "brewery_type": "micro", "city": "Los Angeles", "state": "California", "yelp_rating": null, "longitude": -118.2440377, "latitude": 34.11473143}, {"name": "Earthbound Beer", "brewery_type": "brewpub", "city": "Saint Louis", "state": "Missouri", "yelp_rating": null, "longitude": -90.22866959, "latitude": 38.5935863}, {"name": "Ecliptic Brewing", "brewery_type": "micro", "city": "Portland", "state": "Oregon", "yelp_rating": null, "longitude": -122.6751185, "latitude": 45.54737005}, {"name": "Einstok Beer Company", "brewery_type": "contract", "city": "Los Angeles", "state": "California", "yelp_rating": null, "longitude": -118.4704166, "latitude": 34.0423497}, {"name": "Elevator Brewery and Draught Haus", "brewery_type": "brewpub", "city": "Columbus", "state": "Ohio", "yelp_rating": null, "longitude": -83.0017892, "latitude": 39.9656697}, {"name": "Elevator Brewing Co - Production facility", "brewery_type": "micro", "city": "Columbus", "state": "Ohio", "yelp_rating": null, "longitude": -82.9995686, "latitude": 39.9662282}, {"name": "Elliott Bay Brewery and Pub - West Seattle", "brewery_type": "brewpub", "city": "Seattle", "state": "Washington", "yelp_rating": null, "longitude": -122.3865765, "latitude": 47.5604072}, {"name": "Elliott Bay Public House & Brewery - Lake City", "brewery_type": "brewpub", "city": "Seattle", "state": "Washington", "yelp_rating": null, "longitude": -122.2948936, "latitude": 47.7203026}, {"name": "Elysian Brewing Co", "brewery_type": "large", "city": "Seattle", "state": "Washington", "yelp_rating": null, "longitude": -122.3205871, "latitude": 47.5533243}, {"name": "Elysian Brewing Co", "brewery_type": "large", "city": "Seattle", "state": "Washington", "yelp_rating": null, "longitude": -122.3157647, "latitude": 47.6139598}, {"name": "Elysian Brewing Co -Tangletown", "brewery_type": "closed", "city": "Seattle", "state": "Washington", "yelp_rating": null, "longitude": -122.333474, "latitude": 47.6687837}, {"name": "Empirical Brewery", "brewery_type": "micro", "city": "Chicago", "state": "Illinois", "yelp_rating": null, "longitude": -87.6749395, "latitude": 41.9762555}, {"name": "Endeavor Brewing Company", "brewery_type": "micro", "city": "Columbus", "state": "Ohio", "yelp_rating": null, "longitude": -83.030429, "latitude": 39.988002}, {"name": "English Setter Brewing Company", "brewery_type": "closed", "city": "Spokane", "state": "Washington", "yelp_rating": null, "longitude": -117.1983425, "latitude": 47.68121756}, {"name": "Epic Brewing Co., LLC", "brewery_type": "micro", "city": "Denver", "state": "Colorado", "yelp_rating": null, "longitude": -104.9813405, "latitude": 39.7632294}, {"name": "Epic Brewing Co., LLC", "brewery_type": "micro", "city": "Salt Lake City", "state": "Utah", "yelp_rating": null, "longitude": -111.887825, "latitude": 40.7511406}, {"name": "Eppig Brewing", "brewery_type": "micro", "city": "San Diego", "state": "California", "yelp_rating": null, "longitude": -117.128732, "latitude": 32.755723}, {"name": "Eris Brewery And Cider House", "brewery_type": "brewpub", "city": "Chicago", "state": "Illinois", "yelp_rating": null, "longitude": -87.7342346, "latitude": 41.95388195}, {"name": "Ex Novo Brewing Co", "brewery_type": "micro", "city": "Portland", "state": "Oregon", "yelp_rating": null, "longitude": -122.6684147, "latitude": 45.54002045}, {"name": "Factotum Brewhouse", "brewery_type": "micro", "city": "Denver", "state": "Colorado", "yelp_rating": null, "longitude": -105.0020653, "latitude": 39.7702043}, {"name": "Fair State Brewing Cooperative", "brewery_type": "micro", "city": "Minneapolis", "state": "Minnesota", "yelp_rating": null, "longitude": -93.247453, "latitude": 45.01337914}, {"name": "Fall Brewing Company", "brewery_type": "micro", "city": "San Diego", "state": "California", "yelp_rating": null, "longitude": -117.1302802, "latitude": 32.75997514}, {"name": "Fast Fashion Brewing", "brewery_type": "micro", "city": "Seattle", "state": "Washington", "yelp_rating": null, "longitude": -122.3484134, "latitude": 47.64970532}, {"name": "Fat Boy Brewing Co", "brewery_type": "contract", "city": "Milwaukee", "state": "Wisconsin", "yelp_rating": null, "longitude": -88.0130081, "latitude": 42.99227079}, {"name": "Ferguson Brewing Co", "brewery_type": "brewpub", "city": "Saint Louis", "state": "Missouri", "yelp_rating": null, "longitude": -90.3023163, "latitude": 38.7383895}, {"name": "Fermaentra", "brewery_type": "micro", "city": "Denver", "state": "Colorado", "yelp_rating": null, "longitude": -104.9428631, "latitude": 39.6784277}, {"name": "Ferment.Drink.Repeat", "brewery_type": "micro", "city": "San Francisco", "state": "California", "yelp_rating": null, "longitude": -122.4039991, "latitude": 37.72833678}, {"name": "Fibonacci Brewing Company", "brewery_type": "micro", "city": "Cincinnati", "state": "Ohio", "yelp_rating": null, "longitude": -84.4805528, "latitude": 39.218908}, {"name": "Fiction Beer Company", "brewery_type": "micro", "city": "Denver", "state": "Colorado", "yelp_rating": null, "longitude": -104.8854207, "latitude": 39.7402188}, {"name": "Fifty West Brewing Co", "brewery_type": "brewpub", "city": "Cincinnati", "state": "Ohio", "yelp_rating": null, "longitude": -84.4134859, "latitude": 39.11952}, {"name": "Figurehead Brewing Company", "brewery_type": "micro", "city": "Seattle", "state": "Washington", "yelp_rating": null, "longitude": -122.3835563, "latitude": 47.65688785}, {"name": "Finch Beer Company", "brewery_type": "micro", "city": "Chicago", "state": "Illinois", "yelp_rating": null, "longitude": -87.6721651, "latitude": 41.8861899}, {"name": "Fire On the Mountain Brewing Co", "brewery_type": "brewpub", "city": "Portland", "state": "Oregon", "yelp_rating": null, "longitude": -122.6049402, "latitude": 45.5480432}, {"name": "Fisher Brewing Company", "brewery_type": "micro", "city": "Salt Lake City", "state": "Utah", "yelp_rating": null, "longitude": -111.8817247, "latitude": 40.75187347}, {"name": "Flix Brewhouse", "brewery_type": "brewpub", "city": "Albuquerque", "state": "New Mexico", "yelp_rating": null, "longitude": -106.6815896, "latitude": 35.15878955}, {"name": "Floating Bridge Brewing", "brewery_type": "micro", "city": "Seattle", "state": "Washington", "yelp_rating": null, "longitude": -122.3198017, "latitude": 47.6615295}, {"name": "Flying Bike Cooperative Brewery", "brewery_type": "micro", "city": "Seattle", "state": "Washington", "yelp_rating": null, "longitude": -122.3550721, "latitude": 47.6920561}, {"name": "Flying Lion Brewing", "brewery_type": "micro", "city": "Seattle", "state": "Washington", "yelp_rating": null, "longitude": -122.2840136, "latitude": 47.5560348}, {"name": "For the Love of God Brewing", "brewery_type": "micro", "city": "Spokane", "state": "Washington", "yelp_rating": null, "longitude": -117.4505585, "latitude": 47.68614962}, {"name": "Forbidden Root Restaurant & Brewery", "brewery_type": "micro", "city": "Chicago", "state": "Illinois", "yelp_rating": null, "longitude": -87.6715393, "latitude": 41.8961658}, {"name": "Fort Point Beer Company", "brewery_type": "regional", "city": "San Francisco", "state": "California", "yelp_rating": null, "longitude": -122.4102278, "latitude": 37.78946124}, {"name": "Fountainhead Brewing Co", "brewery_type": "micro", "city": "Sacramento", "state": "California", "yelp_rating": null, "longitude": -121.4831173, "latitude": 38.5332279}, {"name": "Four Eyed Guys Brewing", "brewery_type": "micro", "city": "Spokane", "state": "Washington", "yelp_rating": null, "longitude": -117.4256801, "latitude": 47.67578312}, {"name": "Four String Brewing Company", "brewery_type": "micro", "city": "Columbus", "state": "Ohio", "yelp_rating": null, "longitude": -83.03279943, "latitude": 39.98904657}, {"name": "Fremont Brewing Co", "brewery_type": "regional", "city": "Seattle", "state": "Washington", "yelp_rating": null, "longitude": -122.3444367, "latitude": 47.64919175}, {"name": "Friends and Allies Brewing Company", "brewery_type": "micro", "city": "Austin", "state": "Texas", "yelp_rating": null, "longitude": -97.6961854, "latitude": 30.2628616}, {"name": "Frogtown Brewery", "brewery_type": "micro", "city": "Los Angeles", "state": "California", "yelp_rating": null, "longitude": -118.2515209, "latitude": 34.10656552}, {"name": "Full Sail Brewery - Riverplace", "brewery_type": "micro", "city": "Portland", "state": "Oregon", "yelp_rating": null, "longitude": -122.6735214, "latitude": 45.50957205}, {"name": "Fulton Beer", "brewery_type": "regional", "city": "Minneapolis", "state": "Minnesota", "yelp_rating": null, "longitude": -93.26664, "latitude": 45.046388}, {"name": "Fulton Beer", "brewery_type": "micro", "city": "Minneapolis", "state": "Minnesota", "yelp_rating": null, "longitude": -93.2792212, "latitude": 44.9849395}, {"name": "Funhouse Brews", "brewery_type": "micro", "city": "Portland", "state": "Oregon", "yelp_rating": null, "longitude": -122.70021, "latitude": 45.57944}, {"name": "Future Primitive Brewing Company", "brewery_type": "micro", "city": "Seattle", "state": "Washington", "yelp_rating": null, "longitude": -122.3524234, "latitude": 47.51481725}, {"name": "G8 Development, Inc.", "brewery_type": "planning", "city": "San Diego", "state": "California", "yelp_rating": null, "longitude": -117.1627714, "latitude": 32.7174209}, {"name": "Garland Brew Werks", "brewery_type": "micro", "city": "Spokane", "state": "Washington", "yelp_rating": null, "longitude": -117.4204687, "latitude": 47.69391487}, {"name": "Gateway Brewing, Inc", "brewery_type": "micro", "city": "Portland", "state": "Oregon", "yelp_rating": null, "longitude": -122.5257352, "latitude": 45.5239106}, {"name": "Gathering Place Brewing Company", "brewery_type": "micro", "city": "Milwaukee", "state": "Wisconsin", "yelp_rating": null, "longitude": -87.90107445, "latitude": 43.0857359}, {"name": "Georgetown Brewing Co", "brewery_type": "regional", "city": "Seattle", "state": "Washington", "yelp_rating": null, "longitude": -122.3256809, "latitude": 47.5552618}, {"name": "Ghostfish Brewing Company", "brewery_type": "micro", "city": "Seattle", "state": "Washington", "yelp_rating": null, "longitude": -122.3338908, "latitude": 47.5763508}, {"name": "Gigantic Brewing Co", "brewery_type": "micro", "city": "Portland", "state": "Oregon", "yelp_rating": null, "longitude": -122.6392092, "latitude": 45.48500105}, {"name": "Globier", "brewery_type": "planning", "city": "San Diego", "state": "California", "yelp_rating": null, "longitude": -117.1627714, "latitude": 32.7174209}, {"name": "Golden Handle Project", "brewery_type": "micro", "city": "Spokane", "state": "Washington", "yelp_rating": null, "longitude": -117.4326605, "latitude": 47.65656661}, {"name": "Golden Road Brewing", "brewery_type": "large", "city": "Los Angeles", "state": "California", "yelp_rating": null, "longitude": -118.2744781, "latitude": 34.15049571}, {"name": "Golden Road Brewing Co", "brewery_type": "planning", "city": "Sacramento", "state": "California", "yelp_rating": null, "longitude": -121.4943996, "latitude": 38.5815719}, {"name": "Goldhorn Brewery", "brewery_type": "brewpub", "city": "Cleveland", "state": "Ohio", "yelp_rating": null, "longitude": -81.6516143, "latitude": 41.5214479}, {"name": "Goldspot Brewing Co", "brewery_type": "micro", "city": "Denver", "state": "Colorado", "yelp_rating": null, "longitude": -105.0343545, "latitude": 39.7868924}, {"name": "Good City Brewing Company", "brewery_type": "brewpub", "city": "Milwaukee", "state": "Wisconsin", "yelp_rating": null, "longitude": -87.8889038, "latitude": 43.0565468}, {"name": "Good River Beer Company", "brewery_type": "contract", "city": "Denver", "state": "Colorado", "yelp_rating": null, "longitude": -104.9898169, "latitude": 39.68421218}, {"name": "GoodLife Brewing Company", "brewery_type": "regional", "city": "Bend", "state": "Oregon", "yelp_rating": null, "longitude": -121.3302942, "latitude": 44.05138311}, {"name": "Goose Island Beer Co / Fulton St", "brewery_type": "large", "city": "Chicago", "state": "Illinois", "yelp_rating": null, "longitude": -87.6722122, "latitude": 41.8870058}, {"name": "Gordon Biersch Brewery Restaurant - Columbus", "brewery_type": "closed", "city": "Columbus", "state": "Ohio", "yelp_rating": null, "longitude": -83.0040735, "latitude": 39.9703677}, {"name": "Gordon Biersch Brewery Restaurant - San Diego", "brewery_type": "brewpub", "city": "San Diego", "state": "California", "yelp_rating": null, "longitude": -117.1539235, "latitude": 32.7740128}, {"name": "Grandma's House", "brewery_type": "micro", "city": "Denver", "state": "Colorado", "yelp_rating": null, "longitude": -104.9872737, "latitude": 39.74350567}, {"name": "Granite City Food & Brewery", "brewery_type": "brewpub", "city": "Cleveland", "state": "Ohio", "yelp_rating": null, "longitude": -81.5040318, "latitude": 41.5033931}, {"name": "Granite City Food & Brewery (#11)", "brewery_type": "brewpub", "city": "Kansas City", "state": "Missouri", "yelp_rating": null, "longitude": -94.66105, "latitude": 39.24936415}, {"name": "Great Central Brewing Company", "brewery_type": "micro", "city": "Chicago", "state": "Illinois", "yelp_rating": null, "longitude": -87.6712098, "latitude": 41.8858315}, {"name": "Great Divide Brewing Co", "brewery_type": "regional", "city": "Denver", "state": "Colorado", "yelp_rating": null, "longitude": -104.9885279, "latitude": 39.7539229}, {"name": "Great Divide Brewing Co - RiNo Barrel Bar", "brewery_type": "micro", "city": "Denver", "state": "Colorado", "yelp_rating": null, "longitude": -104.979247, "latitude": 39.7703322}, {"name": "Great Lakes Brewing Co", "brewery_type": "regional", "city": "Cleveland", "state": "Ohio", "yelp_rating": null, "longitude": -81.70571113, "latitude": 41.48405803}, {"name": "Great Lakes Brewing Co", "brewery_type": "brewpub", "city": "Cleveland", "state": "Ohio", "yelp_rating": null, "longitude": -81.7044266, "latitude": 41.4844172}, {"name": "Great Notion Brewing", "brewery_type": "brewpub", "city": "Portland", "state": "Oregon", "yelp_rating": null, "longitude": -122.64249, "latitude": 45.55884}, {"name": "Great Notion Brewing NW", "brewery_type": "micro", "city": "Portland", "state": "Oregon", "yelp_rating": null, "longitude": -122.7089599, "latitude": 45.54001975}, {"name": "Green Flash Brewing Co", "brewery_type": "regional", "city": "San Diego", "state": "California", "yelp_rating": null, "longitude": -117.113975, "latitude": 32.9167796}, {"name": "Green Room Burgers & Beer", "brewery_type": "brewpub", "city": "Kansas City", "state": "Missouri", "yelp_rating": null, "longitude": -94.5932559, "latitude": 39.0544808}, {"name": "Greenstar Brewing At Uncommon Ground", "brewery_type": "brewpub", "city": "Chicago", "state": "Illinois", "yelp_rating": null, "longitude": -87.66001045, "latitude": 41.95128495}, {"name": "Grid City Beer Works", "brewery_type": "brewpub", "city": "Salt Lake City", "state": "Utah", "yelp_rating": null, "longitude": -111.9008077, "latitude": 40.7250681}, {"name": "Griesedieck Brothers Brewery", "brewery_type": "contract", "city": "Saint Louis", "state": "Missouri", "yelp_rating": null, "longitude": -90.23498721, "latitude": 38.70903511}, {"name": "Grixsen Brewing Co", "brewery_type": "closed", "city": "Portland", "state": "Oregon", "yelp_rating": null, "longitude": -122.6554541, "latitude": 45.5052337}, {"name": "Ground Breaker Brewing", "brewery_type": "brewpub", "city": "Portland", "state": "Oregon", "yelp_rating": null, "longitude": -122.6583697, "latitude": 45.50809545}, {"name": "Gypsy Brewery", "brewery_type": "micro", "city": "Cleveland", "state": "Ohio", "yelp_rating": null, "longitude": -81.70785488, "latitude": 41.47449194}, {"name": "Hair of the Dog Brewing Co", "brewery_type": "brewpub", "city": "Portland", "state": "Oregon", "yelp_rating": null, "longitude": -122.6655236, "latitude": 45.5160413}, {"name": "Hale's Ales Brewery and Pub", "brewery_type": "micro", "city": "Seattle", "state": "Washington", "yelp_rating": null, "longitude": -122.3655909, "latitude": 47.6592451}, {"name": "Half Acre Beer Co", "brewery_type": "regional", "city": "Chicago", "state": "Illinois", "yelp_rating": null, "longitude": -87.6820201, "latitude": 41.9591945}, {"name": "Half Door Brewing Company", "brewery_type": "brewpub", "city": "San Diego", "state": "California", "yelp_rating": null, "longitude": -117.156268, "latitude": 32.710248}, {"name": "Hamburger Mary's/Andersonville Brewing Company", "brewery_type": "brewpub", "city": "Chicago", "state": "Illinois", "yelp_rating": null, "longitude": -87.66855092, "latitude": 41.97997865}, {"name": "Hansa Brewery", "brewery_type": "brewpub", "city": "Cleveland", "state": "Ohio", "yelp_rating": null, "longitude": -81.70479139, "latitude": 41.48344207}, {"name": "Hardwood Bar and Smokery", "brewery_type": "brewpub", "city": "San Francisco", "state": "California", "yelp_rating": null, "longitude": -122.404927, "latitude": 37.77073989}, {"name": "Harmonic Brewing", "brewery_type": "micro", "city": "San Francisco", "state": "California", "yelp_rating": null, "longitude": -122.3900962, "latitude": 37.75149961}, {"name": "Haymarket Pub and Brewery", "brewery_type": "brewpub", "city": "Chicago", "state": "Illinois", "yelp_rating": null, "longitude": -87.6472956, "latitude": 41.8841895}, {"name": "HeadFlyer Brewing", "brewery_type": "micro", "city": "Minneapolis", "state": "Minnesota", "yelp_rating": null, "longitude": -93.2437012, "latitude": 44.9917415}, {"name": "Heavy Riff Brewing", "brewery_type": "brewpub", "city": "Saint Louis", "state": "Missouri", "yelp_rating": null, "longitude": -90.29310035, "latitude": 38.62871654}, {"name": "Hellbent Brewing Company", "brewery_type": "micro", "city": "Seattle", "state": "Washington", "yelp_rating": null, "longitude": -122.2931111, "latitude": 47.7238772}, {"name": "Helm's Brewing Company, LLC", "brewery_type": "closed", "city": "San Diego", "state": "California", "yelp_rating": null, "longitude": -117.1389741, "latitude": 32.8373435}, {"name": "Herkimer Pub and Brewery", "brewery_type": "brewpub", "city": "Minneapolis", "state": "Minnesota", "yelp_rating": null, "longitude": -93.2883778, "latitude": 44.9492064}, {"name": "High and Dry Brewing", "brewery_type": "micro", "city": "Albuquerque", "state": "New Mexico", "yelp_rating": null, "longitude": -106.5942753, "latitude": 35.08612571}, {"name": "Highland Park Brewery", "brewery_type": "micro", "city": "Los Angeles", "state": "California", "yelp_rating": null, "longitude": -118.1807106, "latitude": 34.1141508}, {"name": "Highland Park Brewery", "brewery_type": "brewpub", "city": "Los Angeles", "state": "California", "yelp_rating": null, "longitude": -118.2339922, "latitude": 34.06593582}, {"name": "Hillcrest Brewing Company", "brewery_type": "brewpub", "city": "San Diego", "state": "California", "yelp_rating": null, "longitude": -117.1260866, "latitude": 32.7484921}, {"name": "Hodad's Brewing Company", "brewery_type": "planning", "city": "San Diego", "state": "California", "yelp_rating": null, "longitude": -117.1627714, "latitude": 32.7174209}, {"name": "Hofbrauhaus Cleveland / Cincinatti Restaurant Group", "brewery_type": "brewpub", "city": "Cleveland", "state": "Ohio", "yelp_rating": null, "longitude": -81.68115344, "latitude": 41.50310892}, {"name": "Hofbrauhaus Columbus", "brewery_type": "brewpub", "city": "Columbus", "state": "Ohio", "yelp_rating": null, "longitude": -83.025737, "latitude": 39.974313}, {"name": "Hogshead Brewery", "brewery_type": "micro", "city": "Denver", "state": "Colorado", "yelp_rating": null, "longitude": -105.04506, "latitude": 39.758232}, {"name": "Hold Out Brewing", "brewery_type": "micro", "city": "Austin", "state": "Texas", "yelp_rating": null, "longitude": -97.7611333, "latitude": 30.2713864}, {"name": "Holy Mountain Brewing Co", "brewery_type": "micro", "city": "Seattle", "state": "Washington", "yelp_rating": null, "longitude": -122.3745615, "latitude": 47.6308277}, {"name": "Homage Brewing", "brewery_type": "micro", "city": "Los Angeles", "state": "California", "yelp_rating": null, "longitude": -118.2324815, "latitude": 34.0646086}, {"name": "Home Brewing Co.", "brewery_type": "micro", "city": "San Diego", "state": "California", "yelp_rating": null, "longitude": -117.131109, "latitude": 32.755029}, {"name": "Hoof Hearted Brewing - Brewery and Kitchen", "brewery_type": "brewpub", "city": "Columbus", "state": "Ohio", "yelp_rating": null, "longitude": -83.0002482, "latitude": 39.9803665}, {"name": "Hopewell Brewing Co", "brewery_type": "micro", "city": "Chicago", "state": "Illinois", "yelp_rating": null, "longitude": -87.7878762, "latitude": 41.9973481}, {"name": "Hopkins Brewing Company", "brewery_type": "brewpub", "city": "Salt Lake City", "state": "Utah", "yelp_rating": null, "longitude": -111.8609503, "latitude": 40.7250545}, {"name": "Hopped Up Brewing Company", "brewery_type": "closed", "city": "Spokane", "state": "Washington", "yelp_rating": null, "longitude": -117.2178526, "latitude": 47.6571208}, {"name": "Hoppy Brewing Co", "brewery_type": "brewpub", "city": "Sacramento", "state": "California", "yelp_rating": null, "longitude": -121.4812078, "latitude": 38.55962229}, {"name": "Hops Brewery", "brewery_type": "brewpub", "city": "Albuquerque", "state": "New Mexico", "yelp_rating": null, "longitude": -106.6053016, "latitude": 35.0800564}, {"name": "Hopworks Urban Brewery", "brewery_type": "micro", "city": "Portland", "state": "Oregon", "yelp_rating": null, "longitude": -122.634827, "latitude": 45.4968753}, {"name": "Horse Thief Hollow Brewery", "brewery_type": "brewpub", "city": "Chicago", "state": "Illinois", "yelp_rating": null, "longitude": -87.68195116, "latitude": 41.70388555}, {"name": "Hoster Brewing Co", "brewery_type": "contract", "city": "Columbus", "state": "Ohio", "yelp_rating": null, "longitude": -83.01615373, "latitude": 39.94440869}, {"name": "Humble Abode Brewery", "brewery_type": "micro", "city": "Spokane", "state": "Washington", "yelp_rating": null, "longitude": -117.3850304, "latitude": 47.71699977}, {"name": "Illuminated Brew Works", "brewery_type": "micro", "city": "Chicago", "state": "Illinois", "yelp_rating": null, "longitude": -87.65074933, "latitude": 41.88958325}, {"name": "Immersion Brewing", "brewery_type": "brewpub", "city": "Bend", "state": "Oregon", "yelp_rating": null, "longitude": -121.3155231, "latitude": 44.05100445}, {"name": "Inbound Brewco", "brewery_type": "micro", "city": "Minneapolis", "state": "Minnesota", "yelp_rating": null, "longitude": -93.28068766, "latitude": 44.98529275}, {"name": "Independence Brewing", "brewery_type": "regional", "city": "Austin", "state": "Texas", "yelp_rating": null, "longitude": -97.7361012, "latitude": 30.2111313}, {"name": "Indie Brewing Company", "brewery_type": "micro", "city": "Los Angeles", "state": "California", "yelp_rating": null, "longitude": -118.2227391, "latitude": 34.0358529}, {"name": "Insight Brewing Company", "brewery_type": "micro", "city": "Minneapolis", "state": "Minnesota", "yelp_rating": null, "longitude": -93.2702061, "latitude": 44.9812702}, {"name": "Intergalactic Brewing Co", "brewery_type": "micro", "city": "San Diego", "state": "California", "yelp_rating": null, "longitude": -117.1223493, "latitude": 32.89873279}, {"name": "Iron Goat Brewing", "brewery_type": "brewpub", "city": "Spokane", "state": "Washington", "yelp_rating": null, "longitude": -117.4312826, "latitude": 47.65452878}, {"name": "Iron Triangle Brewing Company", "brewery_type": "micro", "city": "Los Angeles", "state": "California", "yelp_rating": null, "longitude": -118.2373618, "latitude": 34.03612189}, {"name": "J Moe's Brewing Company", "brewery_type": "brewpub", "city": "Denver", "state": "Colorado", "yelp_rating": null, "longitude": -104.9791943, "latitude": 39.7800007}, {"name": "Jagged Mountain Brewery", "brewery_type": "micro", "city": "Denver", "state": "Colorado", "yelp_rating": null, "longitude": -104.9913673, "latitude": 39.7522457}, {"name": "Jellyfish Brewing Company", "brewery_type": "micro", "city": "Seattle", "state": "Washington", "yelp_rating": null, "longitude": -122.3203471, "latitude": 47.54956765}, {"name": "Jester King Brewery", "brewery_type": "micro", "city": "Austin", "state": "Texas", "yelp_rating": null, "longitude": -98.0824692, "latitude": 30.2547264}, {"name": "K-Oz Restaurant Brewery", "brewery_type": "brewpub", "city": "San Francisco", "state": "California", "yelp_rating": null, "longitude": -122.409904, "latitude": 37.7786408}, {"name": "Kansas City Bier Company", "brewery_type": "micro", "city": "Kansas City", "state": "Missouri", "yelp_rating": null, "longitude": -94.59367119, "latitude": 38.98548485}, {"name": "Karl Strauss Brewing Co", "brewery_type": "regional", "city": "San Diego", "state": "California", "yelp_rating": null, "longitude": -117.231429, "latitude": 32.832579}, {"name": "Karl Strauss Brewing Co - 4S Ranch", "brewery_type": "brewpub", "city": "San Diego", "state": "California", "yelp_rating": null, "longitude": -117.113249, "latitude": 33.021301}, {"name": "Karl Strauss Brewing Co - Downtown", "brewery_type": "brewpub", "city": "San Diego", "state": "California", "yelp_rating": null, "longitude": -117.1672838, "latitude": 32.71730086}, {"name": "Karl Strauss Brewing Co - Downtown Los Angeles", "brewery_type": "brewpub", "city": "Los Angeles", "state": "California", "yelp_rating": null, "longitude": -118.256154, "latitude": 34.047978}, {"name": "Karl Strauss Brewing Co - Sorrento Mesa", "brewery_type": "brewpub", "city": "San Diego", "state": "California", "yelp_rating": null, "longitude": -117.2027066, "latitude": 32.89634566}, {"name": "Kells Brew Pub", "brewery_type": "brewpub", "city": "Portland", "state": "Oregon", "yelp_rating": null, "longitude": -122.6941546, "latitude": 45.52447285}, {"name": "Kellys Brewpub", "brewery_type": "brewpub", "city": "Albuquerque", "state": "New Mexico", "yelp_rating": null, "longitude": -106.6085695, "latitude": 35.0800666}, {"name": "Kiitos Brewing", "brewery_type": "micro", "city": "Salt Lake City", "state": "Utah", "yelp_rating": null, "longitude": -111.895509, "latitude": 40.75505333}, {"name": "Kilowatt Brewing", "brewery_type": "micro", "city": "San Diego", "state": "California", "yelp_rating": null, "longitude": -117.208801, "latitude": 32.8276353}, {"name": "Kilt Check Brewing Co", "brewery_type": "micro", "city": "Albuquerque", "state": "New Mexico", "yelp_rating": null, "longitude": -106.5898844, "latitude": 35.13600551}, {"name": "King Cong Brewing Company", "brewery_type": "micro", "city": "Sacramento", "state": "California", "yelp_rating": null, "longitude": -121.456029, "latitude": 38.60771757}, {"name": "Knotty Brewing Co", "brewery_type": "micro", "city": "San Diego", "state": "California", "yelp_rating": null, "longitude": -117.127434, "latitude": 32.711658}, {"name": "Knotty Pine Brewing", "brewery_type": "brewpub", "city": "Columbus", "state": "Ohio", "yelp_rating": null, "longitude": -83.0529324, "latitude": 39.9852813}, {"name": "La Cumbre Brewing Co", "brewery_type": "micro", "city": "Albuquerque", "state": "New Mexico", "yelp_rating": null, "longitude": -106.6138649, "latitude": 35.11789781}, {"name": "LABrewatory", "brewery_type": "micro", "city": "Portland", "state": "Oregon", "yelp_rating": null, "longitude": -122.6730826, "latitude": 45.54092271}, {"name": "Ladd & Lass Brewing", "brewery_type": "planning", "city": "Seattle", "state": "Washington", "yelp_rating": null, "longitude": -122.3197369, "latitude": 47.66164527}, {"name": "Lady Justice Brewing Company", "brewery_type": "micro", "city": "Denver", "state": "Colorado", "yelp_rating": null, "longitude": -105.0593393, "latitude": 39.7909855}, {"name": "Lagunitas Brewing Co", "brewery_type": "large", "city": "Chicago", "state": "Illinois", "yelp_rating": null, "longitude": -87.6932373, "latitude": 41.8583603}, {"name": "Lagunitas Seattle Taproom and Beer Sanctuary", "brewery_type": "brewpub", "city": "Seattle", "state": "Washington", "yelp_rating": null, "longitude": -122.3784629, "latitude": 47.6645881}, {"name": "Lake Effect Brewing Company", "brewery_type": "micro", "city": "Chicago", "state": "Illinois", "yelp_rating": null, "longitude": -87.7459687, "latitude": 41.9604369}, {"name": "Lakefront Brewery Inc", "brewery_type": "regional", "city": "Milwaukee", "state": "Wisconsin", "yelp_rating": null, "longitude": -87.9051723, "latitude": 43.0547874}, {"name": "Lakes & Legends Brewing Company", "brewery_type": "micro", "city": "Minneapolis", "state": "Minnesota", "yelp_rating": null, "longitude": -93.2794629, "latitude": 44.9689387}, {"name": "Land-Grant Brewing Company", "brewery_type": "micro", "city": "Columbus", "state": "Ohio", "yelp_rating": null, "longitude": -83.01150763, "latitude": 39.95787195}, {"name": "Lantern Brewing", "brewery_type": "micro", "city": "Seattle", "state": "Washington", "yelp_rating": null, "longitude": -122.3455994, "latitude": 47.6980806}, {"name": "Latchkey Brewing Co", "brewery_type": "micro", "city": "San Diego", "state": "California", "yelp_rating": null, "longitude": -117.1836532, "latitude": 32.74209039}, {"name": "Laughing Monk Brewing", "brewery_type": "micro", "city": "San Francisco", "state": "California", "yelp_rating": null, "longitude": -122.3934567, "latitude": 37.72320112}, {"name": "Laurelwood Public House & Brewery - SE Portland", "brewery_type": "brewpub", "city": "Portland", "state": "Oregon", "yelp_rating": null, "longitude": -122.6484951, "latitude": 45.47415655}, {"name": "Laurelwood Public House and Brewery - NE", "brewery_type": "micro", "city": "Portland", "state": "Oregon", "yelp_rating": null, "longitude": -122.6106727, "latitude": 45.54014675}, {"name": "Lava Rock Brewing Company", "brewery_type": "brewpub", "city": "Albuquerque", "state": "New Mexico", "yelp_rating": null, "longitude": -106.7227497, "latitude": 35.0769954}, {"name": "Lawless Brewing", "brewery_type": "planning", "city": "Los Angeles", "state": "California", "yelp_rating": null, "longitude": -118.2427669, "latitude": 34.0536834}, {"name": "Lazarus Brewing Company", "brewery_type": "brewpub", "city": "Austin", "state": "Texas", "yelp_rating": null, "longitude": -97.7220388, "latitude": 30.2616838}, {"name": "Left Hand Brewing - RiNo", "brewery_type": "micro", "city": "Denver", "state": "Colorado", "yelp_rating": null, "longitude": -104.9701988, "latitude": 39.78107841}, {"name": "Leinenkugel's 10th Street Brewery", "brewery_type": "large", "city": "Milwaukee", "state": "Wisconsin", "yelp_rating": null, "longitude": -87.92455083, "latitude": 43.05050335}, {"name": "Level Beer", "brewery_type": "micro", "city": "Portland", "state": "Oregon", "yelp_rating": null, "longitude": -122.5110275, "latitude": 45.560506}, {"name": "Like Minds Brewing Co.", "brewery_type": "micro", "city": "Milwaukee", "state": "Wisconsin", "yelp_rating": null, "longitude": -87.90143961, "latitude": 43.0542106}, {"name": "Lineage Brewing", "brewery_type": "brewpub", "city": "Columbus", "state": "Ohio", "yelp_rating": null, "longitude": -83.01413155, "latitude": 40.0225652}, {"name": "Listermann Brewing Company", "brewery_type": "micro", "city": "Cincinnati", "state": "Ohio", "yelp_rating": null, "longitude": -84.4721318, "latitude": 39.1463506}, {"name": "Little Machine", "brewery_type": "micro", "city": "Denver", "state": "Colorado", "yelp_rating": null, "longitude": -105.0243557, "latitude": 39.7474051}, {"name": "Little Miss Brewing", "brewery_type": "micro", "city": "San Diego", "state": "California", "yelp_rating": null, "longitude": -117.148488, "latitude": 32.89183}, {"name": "Lo Rez Brewing", "brewery_type": "micro", "city": "Chicago", "state": "Illinois", "yelp_rating": null, "longitude": -87.6524429, "latitude": 41.8533096}, {"name": "Local Brewing Co", "brewery_type": "micro", "city": "San Francisco", "state": "California", "yelp_rating": null, "longitude": -122.3973825, "latitude": 37.776173}, {"name": "Lompoc Brewing, LLC/ The 5th Quadrant", "brewery_type": "closed", "city": "Portland", "state": "Oregon", "yelp_rating": null, "longitude": -122.6675027, "latitude": 45.55345273}, {"name": "Long Table Brewing", "brewery_type": "micro", "city": "Denver", "state": "Colorado", "yelp_rating": null, "longitude": -104.928343, "latitude": 39.75818024}, {"name": "Longship Brewery", "brewery_type": "closed", "city": "San Diego", "state": "California", "yelp_rating": null, "longitude": -117.1714305, "latitude": 32.90417278}, {"name": "Look Long Brewing Company", "brewery_type": "micro", "city": "Portland", "state": "Oregon", "yelp_rating": null, "longitude": -122.6818062, "latitude": 45.57066185}, {"name": "Lowercase Brewing", "brewery_type": "brewpub", "city": "Seattle", "state": "Washington", "yelp_rating": null, "longitude": -122.3146374, "latitude": 47.5483294}, {"name": "Lucky Envelope Brewing", "brewery_type": "micro", "city": "Seattle", "state": "Washington", "yelp_rating": null, "longitude": -122.3691135, "latitude": 47.6648583}, {"name": "Lucky Labrador Beer Hall", "brewery_type": "brewpub", "city": "Portland", "state": "Oregon", "yelp_rating": null, "longitude": -122.6917362, "latitude": 45.53370375}, {"name": "Lucky Labrador Brewpub", "brewery_type": "micro", "city": "Portland", "state": "Oregon", "yelp_rating": null, "longitude": -122.6564149, "latitude": 45.51247125}, {"name": "Lumberbeard Brewing", "brewery_type": "micro", "city": "Spokane", "state": "Washington", "yelp_rating": null, "longitude": -117.4101242, "latitude": 47.65416824}, {"name": "LynLake Brewery", "brewery_type": "micro", "city": "Minneapolis", "state": "Minnesota", "yelp_rating": null, "longitude": -93.2884965, "latitude": 44.9489135}, {"name": "Machine House Brewery", "brewery_type": "micro", "city": "Seattle", "state": "Washington", "yelp_rating": null, "longitude": -122.3171301, "latitude": 47.5502618}, {"name": "Madcow Brewing Co.", "brewery_type": "micro", "city": "Portland", "state": "Oregon", "yelp_rating": null, "longitude": -122.4924064, "latitude": 45.5034238}, {"name": "MadTree Brewing", "brewery_type": "regional", "city": "Cincinnati", "state": "Ohio", "yelp_rating": null, "longitude": -84.4239715, "latitude": 39.1563725}, {"name": "MadTree Brewing 2.0", "brewery_type": "regional", "city": "Cincinnati", "state": "Ohio", "yelp_rating": null, "longitude": -84.4137736, "latitude": 39.1885752}, {"name": "Magnolia Brewing Company", "brewery_type": "brewpub", "city": "San Francisco", "state": "California", "yelp_rating": null, "longitude": -122.4452044, "latitude": 37.7703537}, {"name": "Magnolia Dogpatch", "brewery_type": "micro", "city": "San Francisco", "state": "California", "yelp_rating": null, "longitude": -122.3880818, "latitude": 37.7577437}, {"name": "Magnuson Cafe and Brewery", "brewery_type": "brewpub", "city": "Seattle", "state": "Washington", "yelp_rating": null, "longitude": -122.2647516, "latitude": 47.68882925}, {"name": "Maplewood Brewing Company", "brewery_type": "micro", "city": "Chicago", "state": "Illinois", "yelp_rating": null, "longitude": -87.69106414, "latitude": 41.93075205}, {"name": "Marble Brewery - Mav Lab", "brewery_type": "micro", "city": "Albuquerque", "state": "New Mexico", "yelp_rating": null, "longitude": -106.5308452, "latitude": 35.13056812}, {"name": "Marble Brewery - Production", "brewery_type": "regional", "city": "Albuquerque", "state": "New Mexico", "yelp_rating": null, "longitude": -106.6467287, "latitude": 35.0928224}, {"name": "Maritime Pacific Brewing Co", "brewery_type": "micro", "city": "Seattle", "state": "Washington", "yelp_rating": null, "longitude": -122.371641, "latitude": 47.66347198}, {"name": "Market Garden Brewery", "brewery_type": "micro", "city": "Cleveland", "state": "Ohio", "yelp_rating": null, "longitude": -81.70272815, "latitude": 41.48573746}, {"name": "Market Garden Brewery", "brewery_type": "micro", "city": "Cleveland", "state": "Ohio", "yelp_rating": null, "longitude": -81.7036495, "latitude": 41.4848964}, {"name": "Martin City Brewing Company", "brewery_type": "micro", "city": "Kansas City", "state": "Missouri", "yelp_rating": null, "longitude": -94.590214, "latitude": 38.882691}, {"name": "Marz Community Brewing", "brewery_type": "proprietor", "city": "Chicago", "state": "Illinois", "yelp_rating": null, "longitude": -87.6595253, "latitude": 41.827819}, {"name": "Masthead Brewing Co", "brewery_type": "brewpub", "city": "Cleveland", "state": "Ohio", "yelp_rating": null, "longitude": -81.6853889, "latitude": 41.5041432}, {"name": "Max's Fanno Creek Brew Pub", "brewery_type": "brewpub", "city": "Portland", "state": "Oregon", "yelp_rating": null, "longitude": -122.6771146, "latitude": 45.5156226}, {"name": "MBF Brewing Co", "brewery_type": "closed", "city": "Los Angeles", "state": "California", "yelp_rating": null, "longitude": -118.2564646, "latitude": 34.04700723}, {"name": "McCoy's Public House", "brewery_type": "closed", "city": "Kansas City", "state": "Missouri", "yelp_rating": null, "longitude": -94.5911729, "latitude": 39.1002989}, {"name": "McMenamins Breweries", "brewery_type": "micro", "city": "Portland", "state": "Oregon", "yelp_rating": null, "longitude": -122.6708112, "latitude": 45.5624447}, {"name": "McMenamins Concordia Brewery at Kennedy School", "brewery_type": "brewpub", "city": "Portland", "state": "Oregon", "yelp_rating": null, "longitude": -122.6299694, "latitude": 45.56447065}, {"name": "McMenamins Crystal Ballroom Brewery", "brewery_type": "brewpub", "city": "Portland", "state": "Oregon", "yelp_rating": null, "longitude": -122.6850673, "latitude": 45.5228146}, {"name": "McMenamins Fulton Pub and Brewery", "brewery_type": "micro", "city": "Portland", "state": "Oregon", "yelp_rating": null, "longitude": -122.6726223, "latitude": 45.47711805}, {"name": "McMenamins Hillsdale Brewery and Public House", "brewery_type": "micro", "city": "Portland", "state": "Oregon", "yelp_rating": null, "longitude": -122.6936922, "latitude": 45.4792439}, {"name": "McMenamins Oak Hills Brewery", "brewery_type": "micro", "city": "Portland", "state": "Oregon", "yelp_rating": null, "longitude": -122.7105079, "latitude": 45.5330425}, {"name": "McMenamins Old St. Francis School", "brewery_type": "brewpub", "city": "Bend", "state": "Oregon", "yelp_rating": null, "longitude": -121.314499, "latitude": 44.0566885}, {"name": "McMenamins Queen Anne Brewery", "brewery_type": "brewpub", "city": "Seattle", "state": "Washington", "yelp_rating": null, "longitude": -122.3520571, "latitude": 47.6255427}, {"name": "McMenamins Six Arms Brewery", "brewery_type": "brewpub", "city": "Seattle", "state": "Washington", "yelp_rating": null, "longitude": -122.327845, "latitude": 47.61462221}, {"name": "Metropolitan Brewing", "brewery_type": "micro", "city": "Chicago", "state": "Illinois", "yelp_rating": null, "longitude": -87.6912391, "latitude": 41.9376382}, {"name": "Middle Brow Beer Company", "brewery_type": "micro", "city": "Chicago", "state": "Illinois", "yelp_rating": null, "longitude": -87.6988905, "latitude": 41.9177811}, {"name": "Migration Brewing Co", "brewery_type": "brewpub", "city": "Portland", "state": "Oregon", "yelp_rating": null, "longitude": -122.63635, "latitude": 45.52624}, {"name": "Migration Brewing Co", "brewery_type": "micro", "city": "Portland", "state": "Oregon", "yelp_rating": null, "longitude": -122.4772531, "latitude": 45.5393653}, {"name": "Mike Hess Brewing", "brewery_type": "micro", "city": "San Diego", "state": "California", "yelp_rating": null, "longitude": -117.12854, "latitude": 32.747711}, {"name": "Mike Hess Brewing - Miramar", "brewery_type": "micro", "city": "San Diego", "state": "California", "yelp_rating": null, "longitude": -117.1518284, "latitude": 32.89080081}, {"name": "Mikkeller Brewing San Diego", "brewery_type": "micro", "city": "San Diego", "state": "California", "yelp_rating": null, "longitude": -117.144171, "latitude": 32.89146307}, {"name": "MillerCoors Brewing Co - Milwaukee", "brewery_type": "large", "city": "Milwaukee", "state": "Wisconsin", "yelp_rating": null, "longitude": -87.96633679, "latitude": 43.04207981}, {"name": "Millwood Brewing Company", "brewery_type": "micro", "city": "Spokane", "state": "Washington", "yelp_rating": null, "longitude": -117.283755, "latitude": 47.68541108}, {"name": "Milwaukee Brewing Co - Production facility", "brewery_type": "micro", "city": "Milwaukee", "state": "Wisconsin", "yelp_rating": null, "longitude": -87.91303682, "latitude": 43.02500965}, {"name": "Milwaukee Brewing Company", "brewery_type": "micro", "city": "Milwaukee", "state": "Wisconsin", "yelp_rating": null, "longitude": -87.91303682, "latitude": 43.02500965}, {"name": "Minneapolis Town Hall Brewery", "brewery_type": "brewpub", "city": "Minneapolis", "state": "Minnesota", "yelp_rating": null, "longitude": -93.247714, "latitude": 44.9733314}, {"name": "Mirage Beer Co", "brewery_type": "proprietor", "city": "Seattle", "state": "Washington", "yelp_rating": null, "longitude": -122.3703933, "latitude": 47.66496474}, {"name": "Mission Brewery", "brewery_type": "micro", "city": "San Diego", "state": "California", "yelp_rating": null, "longitude": -117.0682152, "latitude": 32.6220746}, {"name": "MobCraft Beer", "brewery_type": "proprietor", "city": "Milwaukee", "state": "Wisconsin", "yelp_rating": null, "longitude": -87.91693739, "latitude": 43.02618384}, {"name": "Mockery Brewing", "brewery_type": "micro", "city": "Denver", "state": "Colorado", "yelp_rating": null, "longitude": -104.9797349, "latitude": 39.7712389}, {"name": "Modern Brewery", "brewery_type": "micro", "city": "Saint Louis", "state": "Missouri", "yelp_rating": null, "longitude": -90.273784, "latitude": 38.625149}, {"name": "Modern Times - The Belmont Fermentorium", "brewery_type": "brewpub", "city": "Portland", "state": "Oregon", "yelp_rating": null, "longitude": -122.6590469, "latitude": 45.516294}, {"name": "Modern Times - The Dankness Dojo", "brewery_type": "brewpub", "city": "San Diego", "state": "California", "yelp_rating": null, "longitude": -117.206153, "latitude": 32.754233}, {"name": "Modern Times Barrel House", "brewery_type": "micro", "city": "San Diego", "state": "California", "yelp_rating": null, "longitude": -117.208725, "latitude": 32.75539325}, {"name": "Modern Times Beer", "brewery_type": "regional", "city": "San Diego", "state": "California", "yelp_rating": null, "longitude": -117.206153, "latitude": 32.754233}, {"name": "Modist Brewing Company", "brewery_type": "micro", "city": "Minneapolis", "state": "Minnesota", "yelp_rating": null, "longitude": -93.2708126, "latitude": 44.9816901}, {"name": "Moerlein Lager House", "brewery_type": "brewpub", "city": "Cincinnati", "state": "Ohio", "yelp_rating": null, "longitude": -84.50871677, "latitude": 39.09630095}, {"name": "Mollusk Brewing", "brewery_type": "brewpub", "city": "Seattle", "state": "Washington", "yelp_rating": null, "longitude": -122.3425442, "latitude": 47.6269357}, {"name": "Monkey Paw Brewing", "brewery_type": "micro", "city": "San Diego", "state": "California", "yelp_rating": null, "longitude": -117.149375, "latitude": 32.71384441}, {"name": "Monkless Belgian Ales", "brewery_type": "micro", "city": "Bend", "state": "Oregon", "yelp_rating": null, "longitude": -121.3179164, "latitude": 44.0502063}, {"name": "Montavilla Brew Works", "brewery_type": "micro", "city": "Portland", "state": "Oregon", "yelp_rating": null, "longitude": -122.5833557, "latitude": 45.5193212}, {"name": "Moody Tongue Brewing Company", "brewery_type": "micro", "city": "Chicago", "state": "Illinois", "yelp_rating": null, "longitude": -87.6483419, "latitude": 41.8532798}, {"name": "Moonshrimp Brewing", "brewery_type": "micro", "city": "Portland", "state": "Oregon", "yelp_rating": null, "longitude": -122.7000809, "latitude": 45.4637206}, {"name": "Morgan Street Brewery", "brewery_type": "proprietor", "city": "Saint Louis", "state": "Missouri", "yelp_rating": null, "longitude": -90.18465871, "latitude": 38.63032719}, {"name": "Motobrewer", "brewery_type": "planning", "city": "San Francisco", "state": "California", "yelp_rating": null, "longitude": -122.4192363, "latitude": 37.7792808}, {"name": "Motor Row Brewing", "brewery_type": "micro", "city": "Chicago", "state": "Illinois", "yelp_rating": null, "longitude": -87.6233063, "latitude": 41.8499832}, {"name": "Mountain Lakes Brewing Company", "brewery_type": "micro", "city": "Spokane", "state": "Washington", "yelp_rating": null, "longitude": -117.4133414, "latitude": 47.65840592}, {"name": "Mt Tabor Brewing Co", "brewery_type": "micro", "city": "Portland", "state": "Oregon", "yelp_rating": null, "longitude": -122.654188, "latitude": 45.52171275}, {"name": "Mumford Brewing Company", "brewery_type": "micro", "city": "Los Angeles", "state": "California", "yelp_rating": null, "longitude": -118.2425998, "latitude": 34.0464181}, {"name": "Naked City Brewing Co", "brewery_type": "brewpub", "city": "Seattle", "state": "Washington", "yelp_rating": null, "longitude": -122.3550832, "latitude": 47.6918221}, {"name": "Nano Brew Cleveland", "brewery_type": "brewpub", "city": "Cleveland", "state": "Ohio", "yelp_rating": null, "longitude": -81.7045531, "latitude": 41.4860486}, {"name": "Natian Brewery", "brewery_type": "micro", "city": "Portland", "state": "Oregon", "yelp_rating": null, "longitude": -122.6529733, "latitude": 45.5249032}, {"name": "New English Brewing Co Inc", "brewery_type": "micro", "city": "San Diego", "state": "California", "yelp_rating": null, "longitude": -117.230519, "latitude": 32.912641}, {"name": "New Glory Craft Brewery", "brewery_type": "micro", "city": "Sacramento", "state": "California", "yelp_rating": null, "longitude": -121.402102, "latitude": 38.53562933}, {"name": "New Helvetia Brewing Company", "brewery_type": "micro", "city": "Sacramento", "state": "California", "yelp_rating": null, "longitude": -121.4899398, "latitude": 38.5607772}, {"name": "Nimble Brewing", "brewery_type": "micro", "city": "Kansas City", "state": "Missouri", "yelp_rating": null, "longitude": -94.579238, "latitude": 39.095177}, {"name": "Nine Giant Brewing", "brewery_type": "brewpub", "city": "Cincinnati", "state": "Ohio", "yelp_rating": null, "longitude": -84.4276285, "latitude": 39.1822755}, {"name": "No-Li Brewhouse", "brewery_type": "micro", "city": "Spokane", "state": "Washington", "yelp_rating": null, "longitude": -117.3935426, "latitude": 47.6637169}, {"name": "Noble Beast Brewing Co.", "brewery_type": "brewpub", "city": "Cleveland", "state": "Ohio", "yelp_rating": null, "longitude": -81.68692334, "latitude": 41.50768107}, {"name": "Nomadic Beerworks", "brewery_type": "micro", "city": "Austin", "state": "Texas", "yelp_rating": null, "longitude": -97.7627464, "latitude": 30.2244374}, {"name": "North High Brewing", "brewery_type": "micro", "city": "Columbus", "state": "Ohio", "yelp_rating": null, "longitude": -82.982658, "latitude": 39.992787}, {"name": "North Park Beer Co.", "brewery_type": "micro", "city": "San Diego", "state": "California", "yelp_rating": null, "longitude": -117.129137, "latitude": 32.748724}, {"name": "Northbound Smokehouse Brewpub", "brewery_type": "brewpub", "city": "Minneapolis", "state": "Minnesota", "yelp_rating": null, "longitude": -93.2323804, "latitude": 44.9342257}, {"name": "Northern Row Brewery & Distillery", "brewery_type": "micro", "city": "Cincinnati", "state": "Ohio", "yelp_rating": null, "longitude": -84.51924466, "latitude": 39.11836855}, {"name": "Northwest Peaks Brewery", "brewery_type": "micro", "city": "Seattle", "state": "Washington", "yelp_rating": null, "longitude": -122.2774364, "latitude": 47.55099169}, {"name": "Novel Strand Brewing", "brewery_type": "micro", "city": "Denver", "state": "Colorado", "yelp_rating": null, "longitude": -104.9923182, "latitude": 39.718471}, {"name": "Oak Park Brewing Co", "brewery_type": "brewpub", "city": "Sacramento", "state": "California", "yelp_rating": null, "longitude": -121.4681046, "latitude": 38.55062715}, {"name": "Oasis Texas Brewing Company", "brewery_type": "micro", "city": "Austin", "state": "Texas", "yelp_rating": null, "longitude": -98.151206, "latitude": 30.043267}, {"name": "Obec Brewing", "brewery_type": "micro", "city": "Seattle", "state": "Washington", "yelp_rating": null, "longitude": -122.3725178, "latitude": 47.6666586}, {"name": "Oblivion Brewing Co", "brewery_type": "micro", "city": "Bend", "state": "Oregon", "yelp_rating": null, "longitude": -121.2933829, "latitude": 44.08881821}, {"name": "Occidental Brewing", "brewery_type": "micro", "city": "Portland", "state": "Oregon", "yelp_rating": null, "longitude": -122.760861, "latitude": 45.588728}, {"name": "Ocean Beach Brewery", "brewery_type": "brewpub", "city": "San Diego", "state": "California", "yelp_rating": null, "longitude": -117.252024, "latitude": 32.747109}, {"name": "Oda Restaurant", "brewery_type": "brewpub", "city": "San Francisco", "state": "California", "yelp_rating": null, "longitude": -122.3954096, "latitude": 37.7687392}, {"name": "Odell Brewing Co - Denver", "brewery_type": "micro", "city": "Denver", "state": "Colorado", "yelp_rating": null, "longitude": -104.9810078, "latitude": 39.7621447}, {"name": "Off Color Brewing", "brewery_type": "micro", "city": "Chicago", "state": "Illinois", "yelp_rating": null, "longitude": -87.72538437, "latitude": 41.91892697}, {"name": "Off Track Brewing Company", "brewery_type": "micro", "city": "Cincinnati", "state": "Ohio", "yelp_rating": null, "longitude": -84.522243, "latitude": 39.118674}, {"name": "Oggis Pizza & Brewing Co - Carmel Mountain Ranch", "brewery_type": "brewpub", "city": "San Diego", "state": "California", "yelp_rating": null, "longitude": -117.089795, "latitude": 32.965495}, {"name": "Oggis Pizza & Brewing Co - Mission Valley", "brewery_type": "brewpub", "city": "San Diego", "state": "California", "yelp_rating": null, "longitude": -117.1291243, "latitude": 32.78010941}, {"name": "Ohana Brewing Co", "brewery_type": "micro", "city": "Los Angeles", "state": "California", "yelp_rating": null, "longitude": -118.2415609, "latitude": 34.01575629}, {"name": "Old Bus Tavern", "brewery_type": "brewpub", "city": "San Francisco", "state": "California", "yelp_rating": null, "longitude": -122.4195103, "latitude": 37.745701}, {"name": "Old Irving Brewing Co.", "brewery_type": "brewpub", "city": "Chicago", "state": "Illinois", "yelp_rating": null, "longitude": -87.7394333, "latitude": 41.9605751}, {"name": "Old Market Pub and Brewery", "brewery_type": "brewpub", "city": "Portland", "state": "Oregon", "yelp_rating": null, "longitude": -122.7486715, "latitude": 45.46603555}, {"name": "Old Town Brewing", "brewery_type": "brewpub", "city": "Portland", "state": "Oregon", "yelp_rating": null, "longitude": -122.6639427, "latitude": 45.5606811}, {"name": "On Tour Brewing Co.", "brewery_type": "micro", "city": "Chicago", "state": "Illinois", "yelp_rating": null, "longitude": -87.670578, "latitude": 41.8896255}, {"name": "Open Outcry", "brewery_type": "brewpub", "city": "Chicago", "state": "Illinois", "yelp_rating": null, "longitude": -87.6814747, "latitude": 41.6943819}, {"name": "Oskar Blues Brewery", "brewery_type": "micro", "city": "Austin", "state": "Texas", "yelp_rating": null, "longitude": -97.71470248, "latitude": 30.3839295}, {"name": "Our Mutual Friend Brewing", "brewery_type": "micro", "city": "Denver", "state": "Colorado", "yelp_rating": null, "longitude": -104.9825596, "latitude": 39.7605777}, {"name": "Outer Planet Craft Brewing", "brewery_type": "micro", "city": "Seattle", "state": "Washington", "yelp_rating": null, "longitude": -122.3167381, "latitude": 47.6180009}, {"name": "Outlander Brewery & Pub", "brewery_type": "brewpub", "city": "Seattle", "state": "Washington", "yelp_rating": null, "longitude": -122.3555596, "latitude": 47.6523014}, {"name": "Pabst Milwaukee Brewery", "brewery_type": "large", "city": "Milwaukee", "state": "Wisconsin", "yelp_rating": null, "longitude": -87.9255251, "latitude": 43.04554365}, {"name": "Pacific Beach Ale House", "brewery_type": "brewpub", "city": "San Diego", "state": "California", "yelp_rating": null, "longitude": -117.255265, "latitude": 32.794255}, {"name": "Palmer Brewery & Cider House", "brewery_type": "micro", "city": "Albuquerque", "state": "New Mexico", "yelp_rating": null, "longitude": -106.6136878, "latitude": 35.11493302}, {"name": "Palmia", "brewery_type": "proprietor", "city": "San Francisco", "state": "California", "yelp_rating": null, "longitude": -122.4438993, "latitude": 37.804342}, {"name": "Pariah Brewing Company", "brewery_type": "micro", "city": "San Diego", "state": "California", "yelp_rating": null, "longitude": -117.1286268, "latitude": 32.75594166}, {"name": "Peddler Brewing", "brewery_type": "micro", "city": "Seattle", "state": "Washington", "yelp_rating": null, "longitude": -122.37703, "latitude": 47.6638679}, {"name": "Perennial Artisan Ales", "brewery_type": "micro", "city": "Saint Louis", "state": "Missouri", "yelp_rating": null, "longitude": -90.265979, "latitude": 38.54573}, {"name": "Perihelion Brewery", "brewery_type": "brewpub", "city": "Seattle", "state": "Washington", "yelp_rating": null, "longitude": -122.3118193, "latitude": 47.5784432}, {"name": "Perry Street Brewing Co.", "brewery_type": "micro", "city": "Spokane", "state": "Washington", "yelp_rating": null, "longitude": -117.3898022, "latitude": 47.64605073}, {"name": "Piece Brewery", "brewery_type": "brewpub", "city": "Chicago", "state": "Illinois", "yelp_rating": null, "longitude": -87.6760621, "latitude": 41.9102937}, {"name": "Pike Brewing Co", "brewery_type": "micro", "city": "Seattle", "state": "Washington", "yelp_rating": null, "longitude": -122.3397179, "latitude": 47.6082151}, {"name": "Pine Street Brewery", "brewery_type": "micro", "city": "San Francisco", "state": "California", "yelp_rating": null, "longitude": -122.4192363, "latitude": 37.7792808}, {"name": "Pinthouse Pizza North", "brewery_type": "brewpub", "city": "Austin", "state": "Texas", "yelp_rating": null, "longitude": -97.7390631, "latitude": 30.3187523}, {"name": "Pinthouse Pizza South", "brewery_type": "brewpub", "city": "Austin", "state": "Texas", "yelp_rating": null, "longitude": -97.7958917, "latitude": 30.2361072}, {"name": "PINTS Brewing Company and Urban Taproom", "brewery_type": "micro", "city": "Portland", "state": "Oregon", "yelp_rating": null, "longitude": -122.6754225, "latitude": 45.5261944}, {"name": "Pints Pub Brewery and Freehouse", "brewery_type": "brewpub", "city": "Denver", "state": "Colorado", "yelp_rating": null, "longitude": -104.9908538, "latitude": 39.737018}, {"name": "Pizza Port Ocean Beach", "brewery_type": "brewpub", "city": "San Diego", "state": "California", "yelp_rating": null, "longitude": -117.2503592, "latitude": 32.74799385}, {"name": "Platform Beer Co", "brewery_type": "regional", "city": "Cleveland", "state": "Ohio", "yelp_rating": null, "longitude": -81.7140045, "latitude": 41.4799605}, {"name": "Platform Beer Co - Production Facility", "brewery_type": "micro", "city": "Cleveland", "state": "Ohio", "yelp_rating": null, "longitude": -81.70785488, "latitude": 41.47449194}, {"name": "Platform Beer Co Taproom", "brewery_type": "micro", "city": "Columbus", "state": "Ohio", "yelp_rating": null, "longitude": -82.9949497, "latitude": 39.97173}, {"name": "Platform Cincinnati", "brewery_type": "micro", "city": "Cincinnati", "state": "Ohio", "yelp_rating": null, "longitude": -84.5362431, "latitude": 39.10592991}, {"name": "Platt Park Brewing Co.", "brewery_type": "micro", "city": "Denver", "state": "Colorado", "yelp_rating": null, "longitude": -104.9805967, "latitude": 39.68267416}, {"name": "Ponderosa Brewing", "brewery_type": "brewpub", "city": "Albuquerque", "state": "New Mexico", "yelp_rating": null, "longitude": -106.6650502, "latitude": 35.10091248}, {"name": "Pono Brewing Company", "brewery_type": "contract", "city": "Portland", "state": "Oregon", "yelp_rating": null, "longitude": -122.5679347, "latitude": 45.4808905}, {"name": "Poor House Brewing", "brewery_type": "micro", "city": "San Diego", "state": "California", "yelp_rating": null, "longitude": -117.130404, "latitude": 32.758977}, {"name": "Populuxe Brewing", "brewery_type": "micro", "city": "Seattle", "state": "Washington", "yelp_rating": null, "longitude": -122.3680288, "latitude": 47.6645382}, {"name": "Porchlight Brewing Company", "brewery_type": "micro", "city": "Sacramento", "state": "California", "yelp_rating": null, "longitude": -121.4334621, "latitude": 38.5659589}, {"name": "Portland Brewing/North American Breweries", "brewery_type": "regional", "city": "Portland", "state": "Oregon", "yelp_rating": null, "longitude": -122.713089, "latitude": 45.54176525}, {"name": "Portland U-Brew & Pub", "brewery_type": "brewpub", "city": "Portland", "state": "Oregon", "yelp_rating": null, "longitude": -122.649393, "latitude": 45.47740515}, {"name": "Pretentious Barrel House", "brewery_type": "micro", "city": "Columbus", "state": "Ohio", "yelp_rating": null, "longitude": -82.960769, "latitude": 39.981855}, {"name": "Proper Brewing Co", "brewery_type": "micro", "city": "Salt Lake City", "state": "Utah", "yelp_rating": null, "longitude": -111.8906741, "latitude": 40.7505505}, {"name": "Prost Brewing", "brewery_type": "micro", "city": "Denver", "state": "Colorado", "yelp_rating": null, "longitude": -105.0067758, "latitude": 39.761363}, {"name": "Protector Brewery", "brewery_type": "micro", "city": "San Diego", "state": "California", "yelp_rating": null, "longitude": -117.137429, "latitude": 32.896584}, {"name": "Pryes Brewing Company", "brewery_type": "micro", "city": "Minneapolis", "state": "Minnesota", "yelp_rating": null, "longitude": -93.2763222, "latitude": 44.9935022}, {"name": "Pure Project", "brewery_type": "micro", "city": "San Diego", "state": "California", "yelp_rating": null, "longitude": -117.1555351, "latitude": 32.88830151}, {"name": "Pyramid Breweries / North American Breweries", "brewery_type": "brewpub", "city": "Seattle", "state": "Washington", "yelp_rating": null, "longitude": -122.33477, "latitude": 47.5920086}, {"name": "Quantum Brewing Co", "brewery_type": "micro", "city": "San Diego", "state": "California", "yelp_rating": null, "longitude": -117.1170304, "latitude": 32.8901624}, {"name": "RAM Restaurant and Brewery - Seattle", "brewery_type": "brewpub", "city": "Seattle", "state": "Washington", "yelp_rating": null, "longitude": -122.2980609, "latitude": 47.6641459}, {"name": "Random Precision Brewing Company", "brewery_type": "micro", "city": "Columbus", "state": "Ohio", "yelp_rating": null, "longitude": -83.05232, "latitude": 40.090144}, {"name": "Ratio Beerworks", "brewery_type": "micro", "city": "Denver", "state": "Colorado", "yelp_rating": null, "longitude": -104.9812181, "latitude": 39.7615104}, {"name": "Ravenna Brewing Company", "brewery_type": "micro", "city": "Seattle", "state": "Washington", "yelp_rating": null, "longitude": -122.299162, "latitude": 47.6682272}, {"name": "Redhook Brewery", "brewery_type": "regional", "city": "Seattle", "state": "Washington", "yelp_rating": null, "longitude": -122.3227119, "latitude": 47.6144468}, {"name": "Red Door Brewing Co", "brewery_type": "micro", "city": "Albuquerque", "state": "New Mexico", "yelp_rating": null, "longitude": -106.5864617, "latitude": 35.1165072}, {"name": "Red Rock Brewing Co", "brewery_type": "brewpub", "city": "Salt Lake City", "state": "Utah", "yelp_rating": null, "longitude": -111.89671, "latitude": 40.77487847}, {"name": "Red Rock Brewing Co - Production", "brewery_type": "micro", "city": "Salt Lake City", "state": "Utah", "yelp_rating": null, "longitude": -111.9029539, "latitude": 40.77956659}, {"name": "Reel Brew Co", "brewery_type": "closed", "city": "Los Angeles", "state": "California", "yelp_rating": null, "longitude": -118.3973933, "latitude": 34.19896605}, {"name": "Renegade Brewing Company", "brewery_type": "micro", "city": "Denver", "state": "Colorado", "yelp_rating": null, "longitude": -104.9992637, "latitude": 39.71831392}, {"name": "Renegade Brewing Company - Production", "brewery_type": "micro", "city": "Denver", "state": "Colorado", "yelp_rating": null, "longitude": -104.9992637, "latitude": 39.71831392}, {"name": "Resident Brewing", "brewery_type": "micro", "city": "San Diego", "state": "California", "yelp_rating": null, "longitude": -117.1608785, "latitude": 32.71667995}, {"name": "Resignation Brewery", "brewery_type": "contract", "city": "Austin", "state": "Texas", "yelp_rating": null, "longitude": -97.742323, "latitude": 30.262322}, {"name": "Reuben's Brews", "brewery_type": "micro", "city": "Seattle", "state": "Washington", "yelp_rating": null, "longitude": -122.3721641, "latitude": 47.6655088}, {"name": "Reuben's Brews Taproom", "brewery_type": "micro", "city": "Seattle", "state": "Washington", "yelp_rating": null, "longitude": -122.3732468, "latitude": 47.6654087}, {"name": "Revel Urban Winery / Revel OTR", "brewery_type": "brewpub", "city": "Cincinnati", "state": "Ohio", "yelp_rating": null, "longitude": -84.5126641, "latitude": 39.1085275}, {"name": "Revolution Brewing", "brewery_type": "regional", "city": "Chicago", "state": "Illinois", "yelp_rating": null, "longitude": -87.707534, "latitude": 41.9289777}, {"name": "Revolution Brewing - Brewpub", "brewery_type": "brewpub", "city": "Chicago", "state": "Illinois", "yelp_rating": null, "longitude": -87.6981447, "latitude": 41.923586}, {"name": "Rhinegeist Brewery", "brewery_type": "regional", "city": "Cincinnati", "state": "Ohio", "yelp_rating": null, "longitude": -84.51992076, "latitude": 39.1172}, {"name": "Rio Bravo Brewing Company", "brewery_type": "brewpub", "city": "Albuquerque", "state": "New Mexico", "yelp_rating": null, "longitude": -106.6454774, "latitude": 35.10343814}, {"name": "Rip Current Brewing North Park", "brewery_type": "brewpub", "city": "San Diego", "state": "California", "yelp_rating": null, "longitude": -117.129808, "latitude": 32.752388}, {"name": "River City Brewing", "brewery_type": "micro", "city": "Spokane", "state": "Washington", "yelp_rating": null, "longitude": -117.4323508, "latitude": 47.65605308}, {"name": "River City Brewing Co", "brewery_type": "brewpub", "city": "Sacramento", "state": "California", "yelp_rating": null, "longitude": -121.3297812, "latitude": 38.61512607}, {"name": "RiverBend Brewing Pub", "brewery_type": "closed", "city": "Bend", "state": "Oregon", "yelp_rating": null, "longitude": -121.3051834, "latitude": 44.0760099}, {"name": "Rock Bottom Brewery - Chicago", "brewery_type": "brewpub", "city": "Chicago", "state": "Illinois", "yelp_rating": null, "longitude": -87.62839238, "latitude": 41.8913983}, {"name": "Rock Bottom Brewery - Minneapolis", "brewery_type": "brewpub", "city": "Minneapolis", "state": "Minnesota", "yelp_rating": null, "longitude": -93.274687, "latitude": 44.976427}, {"name": "Rock Bottom Brewery - Portland", "brewery_type": "brewpub", "city": "Portland", "state": "Oregon", "yelp_rating": null, "longitude": -122.6749783, "latitude": 45.5178662}, {"name": "Rockwell Beer Company", "brewery_type": "regional", "city": "Saint Louis", "state": "Missouri", "yelp_rating": null, "longitude": -90.251576, "latitude": 38.625572}, {"name": "Rogue East Side Pub & Pilot Brewery", "brewery_type": "micro", "city": "Portland", "state": "Oregon", "yelp_rating": null, "longitude": -122.656467, "latitude": 45.51586884}, {"name": "RoHa Brewing Project", "brewery_type": "micro", "city": "Salt Lake City", "state": "Utah", "yelp_rating": null, "longitude": -111.890097, "latitude": 40.736469}, {"name": "Rooftop Brewing Co", "brewery_type": "micro", "city": "Seattle", "state": "Washington", "yelp_rating": null, "longitude": -122.3732188, "latitude": 47.6557532}, {"name": "Rosenstadt Brewery LLC", "brewery_type": "micro", "city": "Portland", "state": "Oregon", "yelp_rating": null, "longitude": -122.6199321, "latitude": 45.5118679}, {"name": "Rough Draft Brewing", "brewery_type": "micro", "city": "San Diego", "state": "California", "yelp_rating": null, "longitude": -117.1716977, "latitude": 32.88370283}, {"name": "Royale Brewing Company", "brewery_type": "closed", "city": "Portland", "state": "Oregon", "yelp_rating": null, "longitude": -122.6656145, "latitude": 45.57960681}, {"name": "Ruhstaller Beer", "brewery_type": "micro", "city": "Sacramento", "state": "California", "yelp_rating": null, "longitude": -121.497428, "latitude": 38.58004528}, {"name": "Ruse Brewing, LLC.", "brewery_type": "proprietor", "city": "Portland", "state": "Oregon", "yelp_rating": null, "longitude": -122.6470059, "latitude": 45.4593922}, {"name": "Sacrament Brewing", "brewery_type": "micro", "city": "Sacramento", "state": "California", "yelp_rating": null, "longitude": -121.4849275, "latitude": 38.57794927}, {"name": "Saint Archer Brewing Company", "brewery_type": "large", "city": "San Diego", "state": "California", "yelp_rating": null, "longitude": -117.163745, "latitude": 32.880445}, {"name": "Salt Flats Brewery", "brewery_type": "micro", "city": "Salt Lake City", "state": "Utah", "yelp_rating": null, "longitude": -111.9481568, "latitude": 40.7298237}, {"name": "Salt Lake Brewing Co/ Squatters Pub Brewery", "brewery_type": "micro", "city": "Salt Lake City", "state": "Utah", "yelp_rating": null, "longitude": -111.895676, "latitude": 40.762524}, {"name": "SaltFire Brewing Co.", "brewery_type": "micro", "city": "Salt Lake City", "state": "Utah", "yelp_rating": null, "longitude": -111.8937514, "latitude": 40.7227984}, {"name": "San Francisco Brewing Co", "brewery_type": "proprietor", "city": "San Francisco", "state": "California", "yelp_rating": null, "longitude": -122.4231232, "latitude": 37.80583356}, {"name": "Sasquatch Brewery", "brewery_type": "micro", "city": "Portland", "state": "Oregon", "yelp_rating": null, "longitude": -122.7125709, "latitude": 45.54008922}, {"name": "Sasquatch Pub", "brewery_type": "brewpub", "city": "Portland", "state": "Oregon", "yelp_rating": null, "longitude": -122.6988132, "latitude": 45.4776303}, {"name": "Saucy Brew Works", "brewery_type": "brewpub", "city": "Cleveland", "state": "Ohio", "yelp_rating": null, "longitude": -81.7105691, "latitude": 41.4894793}, {"name": "Savagewood Brewing Company", "brewery_type": "micro", "city": "San Diego", "state": "California", "yelp_rating": null, "longitude": -117.1130008, "latitude": 32.91329511}, {"name": "Schlafly Beer/The Saint Louis Brewery, LLC", "brewery_type": "regional", "city": "Saint Louis", "state": "Missouri", "yelp_rating": null, "longitude": -90.20969425, "latitude": 38.63298865}, {"name": "Schooner Exact Brewing Co", "brewery_type": "micro", "city": "Seattle", "state": "Washington", "yelp_rating": null, "longitude": -122.3354879, "latitude": 47.5678008}, {"name": "Scout Beer", "brewery_type": "micro", "city": "Portland", "state": "Oregon", "yelp_rating": null, "longitude": -122.6555905, "latitude": 45.51201892}, {"name": "Seapine Brewing Company", "brewery_type": "micro", "city": "Seattle", "state": "Washington", "yelp_rating": null, "longitude": -122.3355003, "latitude": 47.5760786}, {"name": "Second Chance Beer Company", "brewery_type": "micro", "city": "San Diego", "state": "California", "yelp_rating": null, "longitude": -117.082033, "latitude": 32.994888}, {"name": "Second Profession Brewing Company", "brewery_type": "brewpub", "city": "Portland", "state": "Oregon", "yelp_rating": null, "longitude": -122.498321, "latitude": 45.5499485}, {"name": "Seedstock Brewery", "brewery_type": "micro", "city": "Denver", "state": "Colorado", "yelp_rating": null, "longitude": -105.0348519, "latitude": 39.74025203}, {"name": "Seven Stills", "brewery_type": "micro", "city": "San Francisco", "state": "California", "yelp_rating": null, "longitude": -122.3991969, "latitude": 37.76881492}, {"name": "Seven Stills", "brewery_type": "micro", "city": "San Francisco", "state": "California", "yelp_rating": null, "longitude": -122.5022326, "latitude": 37.75694059}, {"name": "Seventh Son Brewing Co", "brewery_type": "micro", "city": "Columbus", "state": "Ohio", "yelp_rating": null, "longitude": -83.0019404, "latitude": 39.985351}, {"name": "Shade Tree Brewing", "brewery_type": "micro", "city": "Bend", "state": "Oregon", "yelp_rating": null, "longitude": -121.3588559, "latitude": 43.99269969}, {"name": "Shades Brewery", "brewery_type": "micro", "city": "Salt Lake City", "state": "Utah", "yelp_rating": null, "longitude": -111.895566, "latitude": 40.7240264}, {"name": "Sideswipe Brewing", "brewery_type": "micro", "city": "Columbus", "state": "Ohio", "yelp_rating": null, "longitude": -83.06626767, "latitude": 39.96723751}, {"name": "Sidetrack Brewing Company", "brewery_type": "micro", "city": "Albuquerque", "state": "New Mexico", "yelp_rating": null, "longitude": -106.6500567, "latitude": 35.0807893}, {"name": "Silver Moon Brewing", "brewery_type": "micro", "city": "Bend", "state": "Oregon", "yelp_rating": null, "longitude": -121.3079151, "latitude": 44.0603904}, {"name": "Sisyphus Brewing", "brewery_type": "micro", "city": "Minneapolis", "state": "Minnesota", "yelp_rating": null, "longitude": -93.28833571, "latitude": 44.973158}, {"name": "Sleeping Giant Brewing Company", "brewery_type": "micro", "city": "Denver", "state": "Colorado", "yelp_rating": null, "longitude": -105.0167729, "latitude": 39.7237975}, {"name": "Smokehouse Brewing", "brewery_type": "brewpub", "city": "Columbus", "state": "Ohio", "yelp_rating": null, "longitude": -83.047935, "latitude": 39.973715}, {"name": "Sociable Cider Werks", "brewery_type": "micro", "city": "Minneapolis", "state": "Minnesota", "yelp_rating": null, "longitude": -93.2422388, "latitude": 45.0239772}, {"name": "Social Kitchen & Brewery", "brewery_type": "brewpub", "city": "San Francisco", "state": "California", "yelp_rating": null, "longitude": -122.4660662, "latitude": 37.7635041}, {"name": "Societe Brewing Company", "brewery_type": "micro", "city": "San Diego", "state": "California", "yelp_rating": null, "longitude": -117.1463568, "latitude": 32.8338146}, {"name": "South Park Brewing", "brewery_type": "brewpub", "city": "San Diego", "state": "California", "yelp_rating": null, "longitude": -117.130074, "latitude": 32.7470971}, {"name": "Southern Pacific Brewing", "brewery_type": "brewpub", "city": "San Francisco", "state": "California", "yelp_rating": null, "longitude": -122.4139896, "latitude": 37.7601311}, {"name": "Southpaw BBQ & Southern Cooking", "brewery_type": "brewpub", "city": "San Francisco", "state": "California", "yelp_rating": null, "longitude": -122.4195306, "latitude": 37.7634391}, {"name": "Spangalang Brewery", "brewery_type": "micro", "city": "Denver", "state": "Colorado", "yelp_rating": null, "longitude": -104.9770361, "latitude": 39.7552227}, {"name": "Speakeasy Ales and Lagers", "brewery_type": "micro", "city": "San Francisco", "state": "California", "yelp_rating": null, "longitude": -122.3808557, "latitude": 37.73854531}, {"name": "Spires Social Brewing Co.", "brewery_type": "micro", "city": "Columbus", "state": "Ohio", "yelp_rating": null, "longitude": -83.004836, "latitude": 40.1473396}, {"name": "Spiteful Brewing", "brewery_type": "micro", "city": "Chicago", "state": "Illinois", "yelp_rating": null, "longitude": -87.6806429, "latitude": 41.979914}, {"name": "Square One Brewery and Distillery", "brewery_type": "brewpub", "city": "Saint Louis", "state": "Missouri", "yelp_rating": null, "longitude": -90.21039473, "latitude": 38.616665}, {"name": "Square Wheel Brewing Co", "brewery_type": "micro", "city": "Spokane", "state": "Washington", "yelp_rating": null, "longitude": -117.2538107, "latitude": 47.69800496}, {"name": "St. Elmo Brewing Company", "brewery_type": "micro", "city": "Austin", "state": "Texas", "yelp_rating": null, "longitude": -97.7611749, "latitude": 30.2174321}, {"name": "Standard Deviant Brewing", "brewery_type": "micro", "city": "San Francisco", "state": "California", "yelp_rating": null, "longitude": -122.4195984, "latitude": 37.76837929}, {"name": "Station 26 Brewing Co", "brewery_type": "micro", "city": "Denver", "state": "Colorado", "yelp_rating": null, "longitude": -104.9062608, "latitude": 39.76935335}, {"name": "Stockyards Brewing Company", "brewery_type": "micro", "city": "Kansas City", "state": "Missouri", "yelp_rating": null, "longitude": -94.605113, "latitude": 39.094436}, {"name": "Stone Brewing World Bistro & Gardens- Liberty Station", "brewery_type": "brewpub", "city": "San Diego", "state": "California", "yelp_rating": null, "longitude": -117.21157, "latitude": 32.7405237}, {"name": "StormBreaker Brewing", "brewery_type": "brewpub", "city": "Portland", "state": "Oregon", "yelp_rating": null, "longitude": -122.6751573, "latitude": 45.54943475}, {"name": "StormBreaker Brewing St. Johns", "brewery_type": "brewpub", "city": "Portland", "state": "Oregon", "yelp_rating": null, "longitude": -122.753038, "latitude": 45.58988575}, {"name": "Stoup Brewing", "brewery_type": "micro", "city": "Seattle", "state": "Washington", "yelp_rating": null, "longitude": -122.3711883, "latitude": 47.6666399}, {"name": "Stover Brewing", "brewery_type": "planning", "city": "San Diego", "state": "California", "yelp_rating": null, "longitude": -117.1627714, "latitude": 32.7174209}, {"name": "Strange Days Brewing Co", "brewery_type": "micro", "city": "Kansas City", "state": "Missouri", "yelp_rating": null, "longitude": -94.57994512, "latitude": 39.1100614}, {"name": "Strange Days Brewing Company", "brewery_type": "micro", "city": "Kansas City", "state": "Missouri", "yelp_rating": null, "longitude": -94.57994512, "latitude": 39.1100614}, {"name": "Streetside Brewery", "brewery_type": "micro", "city": "Cincinnati", "state": "Ohio", "yelp_rating": null, "longitude": -84.43295078, "latitude": 39.10919541}, {"name": "Sufferfest Beer Company", "brewery_type": "proprietor", "city": "San Francisco", "state": "California", "yelp_rating": null, "longitude": -122.4283947, "latitude": 37.79807486}, {"name": "Sunset Reservoir Brewing Company", "brewery_type": "brewpub", "city": "San Francisco", "state": "California", "yelp_rating": null, "longitude": -122.4823594, "latitude": 37.7538314}, {"name": "Taft's Ale House", "brewery_type": "micro", "city": "Cincinnati", "state": "Ohio", "yelp_rating": null, "longitude": -84.51750995, "latitude": 39.111325}, {"name": "Taft's Brewing Co", "brewery_type": "brewpub", "city": "Cincinnati", "state": "Ohio", "yelp_rating": null, "longitude": -84.5127071, "latitude": 39.1681213}, {"name": "TangleTown Public House", "brewery_type": "micro", "city": "Seattle", "state": "Washington", "yelp_rating": null, "longitude": -122.333474, "latitude": 47.6687837}, {"name": "Tap and Screw Brewery", "brewery_type": "brewpub", "city": "Cincinnati", "state": "Ohio", "yelp_rating": null, "longitude": -84.40434316, "latitude": 39.158691}, {"name": "Templin Family Brewing", "brewery_type": "micro", "city": "Salt Lake City", "state": "Utah", "yelp_rating": null, "longitude": -111.9000402, "latitude": 40.7486519}, {"name": "Tenacious Brewing Company", "brewery_type": "planning", "city": "San Diego", "state": "California", "yelp_rating": null, "longitude": -117.1627714, "latitude": 32.7174209}, {"name": "Terrestrial Brewing Company", "brewery_type": "micro", "city": "Cleveland", "state": "Ohio", "yelp_rating": null, "longitude": -81.7361552, "latitude": 41.4869219}, {"name": "The 377 Brewery", "brewery_type": "micro", "city": "Albuquerque", "state": "New Mexico", "yelp_rating": null, "longitude": -106.6219267, "latitude": 35.0561133}, {"name": "The Ale Apothecary", "brewery_type": "micro", "city": "Bend", "state": "Oregon", "yelp_rating": null, "longitude": -121.3314277, "latitude": 44.05140622}, {"name": "The Bell Marker", "brewery_type": "brewpub", "city": "San Diego", "state": "California", "yelp_rating": null, "longitude": -117.0763473, "latitude": 32.597261}, {"name": "The Brew Brothers / Scioto Downs Racino", "brewery_type": "brewpub", "city": "Columbus", "state": "Ohio", "yelp_rating": null, "longitude": -82.995426, "latitude": 39.922819}, {"name": "The Brewer's Table", "brewery_type": "micro", "city": "Austin", "state": "Texas", "yelp_rating": null, "longitude": -97.7043433, "latitude": 30.2529441}, {"name": "The Cleveland Brewery", "brewery_type": "micro", "city": "Cleveland", "state": "Ohio", "yelp_rating": null, "longitude": -81.549766, "latitude": 41.586428}, {"name": "The Grain Shed", "brewery_type": "brewpub", "city": "Spokane", "state": "Washington", "yelp_rating": null, "longitude": -117.3948236, "latitude": 47.64927782}, {"name": "The Grateful Gnome Sandwich Shoppe and Brewery", "brewery_type": "brewpub", "city": "Denver", "state": "Colorado", "yelp_rating": null, "longitude": -105.0432655, "latitude": 39.7764426}, {"name": "The Hidden Mother Brewery", "brewery_type": "micro", "city": "Spokane", "state": "Washington", "yelp_rating": null, "longitude": -117.417792, "latitude": 47.669775}, {"name": "The Intrepid Sojourner Beer Project", "brewery_type": "micro", "city": "Denver", "state": "Colorado", "yelp_rating": null, "longitude": -104.9993865, "latitude": 39.7291386}, {"name": "The Jolly Scholar", "brewery_type": "brewpub", "city": "Cleveland", "state": "Ohio", "yelp_rating": null, "longitude": -81.60836498, "latitude": 41.5074076}, {"name": "The Larimer Beer Company", "brewery_type": "contract", "city": "Denver", "state": "Colorado", "yelp_rating": null, "longitude": -104.9093487, "latitude": 39.76773768}, {"name": "The Sandlot Brewery At Coors Field", "brewery_type": "large", "city": "Denver", "state": "Colorado", "yelp_rating": null, "longitude": -104.9926484, "latitude": 39.75571836}, {"name": "The Stalking Horse", "brewery_type": "brewpub", "city": "Los Angeles", "state": "California", "yelp_rating": null, "longitude": -118.3273271, "latitude": 34.0478786}, {"name": "The Woodburn Brewery", "brewery_type": "micro", "city": "Cincinnati", "state": "Ohio", "yelp_rating": null, "longitude": -84.4768398, "latitude": 39.1289592}, {"name": "Third Space Brewing", "brewery_type": "micro", "city": "Milwaukee", "state": "Wisconsin", "yelp_rating": null, "longitude": -87.9146199, "latitude": 43.0346679}, {"name": "Thirsty Monk Pub Brewery", "brewery_type": "micro", "city": "Denver", "state": "Colorado", "yelp_rating": null, "longitude": -104.9682508, "latitude": 39.743154}, {"name": "Thirsty Planet Brewing Co", "brewery_type": "micro", "city": "Austin", "state": "Texas", "yelp_rating": null, "longitude": -97.7487141, "latitude": 30.2521655}, {"name": "ThirstyBear Organic Brewery", "brewery_type": "brewpub", "city": "San Francisco", "state": "California", "yelp_rating": null, "longitude": -122.399512, "latitude": 37.785543}, {"name": "Thorn Brewing Co", "brewery_type": "micro", "city": "San Diego", "state": "California", "yelp_rating": null, "longitude": -117.147735, "latitude": 32.702171}, {"name": "Thorn Street Brewery", "brewery_type": "micro", "city": "San Diego", "state": "California", "yelp_rating": null, "longitude": -117.125379, "latitude": 32.739337}, {"name": "Three Points Urban Brewery", "brewery_type": "micro", "city": "Cincinnati", "state": "Ohio", "yelp_rating": null, "longitude": -84.509442, "latitude": 39.11009082}, {"name": "Thunderhawk Alements", "brewery_type": "micro", "city": "San Diego", "state": "California", "yelp_rating": null, "longitude": -117.137467, "latitude": 32.89575006}, {"name": "Topsy's", "brewery_type": "brewpub", "city": "San Francisco", "state": "California", "yelp_rating": null, "longitude": -122.4038779, "latitude": 37.79052614}, {"name": "Torn Label Brewing Company", "brewery_type": "micro", "city": "Kansas City", "state": "Missouri", "yelp_rating": null, "longitude": -94.5731695, "latitude": 39.0926934}, {"name": "Touchstone Brewing Company", "brewery_type": "planning", "city": "Sacramento", "state": "California", "yelp_rating": null, "longitude": -121.4943996, "latitude": 38.5815719}, {"name": "Tower Brewing Co", "brewery_type": "micro", "city": "Sacramento", "state": "California", "yelp_rating": null, "longitude": -121.4266488, "latitude": 38.55493463}, {"name": "Toy Soldier", "brewery_type": "brewpub", "city": "San Francisco", "state": "California", "yelp_rating": null, "longitude": -122.403671, "latitude": 37.79129781}, {"name": "Track 7 Brewing Co - Curtis Park", "brewery_type": "micro", "city": "Sacramento", "state": "California", "yelp_rating": null, "longitude": -121.4819794, "latitude": 38.53890682}, {"name": "Track 7 Brewing Co - Natomas", "brewery_type": "micro", "city": "Sacramento", "state": "California", "yelp_rating": null, "longitude": -121.4908802, "latitude": 38.6543681}, {"name": "Tractor Brewing Co", "brewery_type": "micro", "city": "Albuquerque", "state": "New Mexico", "yelp_rating": null, "longitude": -106.6478962, "latitude": 35.1022749}, {"name": "Triple R Brewing", "brewery_type": "micro", "city": "Seattle", "state": "Washington", "yelp_rating": null, "longitude": -122.3178868, "latitude": 47.6752147}, {"name": "Triple Voodoo Brewing Co", "brewery_type": "micro", "city": "San Francisco", "state": "California", "yelp_rating": null, "longitude": -122.3884378, "latitude": 37.7611618}, {"name": "TTs Old Iron Brewery", "brewery_type": "micro", "city": "Spokane", "state": "Washington", "yelp_rating": null, "longitude": -117.4281651, "latitude": 47.655248}, {"name": "TW Pitchers Brewing Co", "brewery_type": "contract", "city": "San Francisco", "state": "California", "yelp_rating": null, "longitude": -122.4750486, "latitude": 37.76307771}, {"name": "Twisted Hippo", "brewery_type": "contract", "city": "Chicago", "state": "Illinois", "yelp_rating": null, "longitude": -87.7019463, "latitude": 41.961125}, {"name": "Twisted Roots Brewing", "brewery_type": "micro", "city": "Saint Louis", "state": "Missouri", "yelp_rating": null, "longitude": -90.238117, "latitude": 38.637188}, {"name": "Uinta Brewing Co", "brewery_type": "regional", "city": "Salt Lake City", "state": "Utah", "yelp_rating": null, "longitude": -111.954182, "latitude": 40.732607}, {"name": "Uncle Billy's Brewery", "brewery_type": "micro", "city": "Austin", "state": "Texas", "yelp_rating": null, "longitude": -97.76126939, "latitude": 30.262109}, {"name": "Upright Brewing Co", "brewery_type": "micro", "city": "Portland", "state": "Oregon", "yelp_rating": null, "longitude": -122.6703323, "latitude": 45.5346842}, {"name": "Uptown Market Brewing", "brewery_type": "micro", "city": "Portland", "state": "Oregon", "yelp_rating": null, "longitude": -122.7423002, "latitude": 45.4958797}, {"name": "Urban Artifact", "brewery_type": "micro", "city": "Cincinnati", "state": "Ohio", "yelp_rating": null, "longitude": -84.54196282, "latitude": 39.1607827}, {"name": "Urban Chestnut Brewing Co", "brewery_type": "regional", "city": "Saint Louis", "state": "Missouri", "yelp_rating": null, "longitude": -90.261143, "latitude": 38.626662}, {"name": "Urban Family Brewing", "brewery_type": "micro", "city": "Seattle", "state": "Washington", "yelp_rating": null, "longitude": -122.3902975, "latitude": 47.6605861}, {"name": "Urban Harvest Brewing Company", "brewery_type": "micro", "city": "Milwaukee", "state": "Wisconsin", "yelp_rating": null, "longitude": -87.91672749, "latitude": 43.02080941}, {"name": "Urban Research Brewery", "brewery_type": "brewpub", "city": "Saint Louis", "state": "Missouri", "yelp_rating": null, "longitude": -90.274034, "latitude": 38.627933}, {"name": "Urban Roots Brewing", "brewery_type": "brewpub", "city": "Sacramento", "state": "California", "yelp_rating": null, "longitude": -121.4945908, "latitude": 38.56579627}, {"name": "Utah Brewers Cooperative", "brewery_type": "regional", "city": "Salt Lake City", "state": "Utah", "yelp_rating": null, "longitude": -111.8993199, "latitude": 40.73267145}, {"name": "Vine Street Pub & Brewery", "brewery_type": "brewpub", "city": "Denver", "state": "Colorado", "yelp_rating": null, "longitude": -104.9627421, "latitude": 39.7434087}, {"name": "Von Ebert Brewing", "brewery_type": "planning", "city": "Portland", "state": "Oregon", "yelp_rating": null, "longitude": -122.5187026, "latitude": 45.52726898}, {"name": "Von Ebert Brewing", "brewery_type": "brewpub", "city": "Portland", "state": "Oregon", "yelp_rating": null, "longitude": -122.6843058, "latitude": 45.52389727}, {"name": "Wasatch Brew Pub - SLC Airport", "brewery_type": "brewpub", "city": "Salt Lake City", "state": "Utah", "yelp_rating": "Concourse B Level 2", "longitude": -111.990646, "latitude": 84.11640789}, {"name": "Wasatch Brew Pub - Sugarhouse", "brewery_type": "brewpub", "city": "Salt Lake City", "state": "Utah", "yelp_rating": null, "longitude": -111.8503182, "latitude": 40.6987539}, {"name": "Water Street Brewery", "brewery_type": "micro", "city": "Milwaukee", "state": "Wisconsin", "yelp_rating": null, "longitude": -87.9112223, "latitude": 43.0447248}, {"name": "Wayfinder Beer", "brewery_type": "brewpub", "city": "Portland", "state": "Oregon", "yelp_rating": null, "longitude": -122.6634881, "latitude": 45.5208914}, {"name": "Wellspent Brewing Company", "brewery_type": "micro", "city": "Saint Louis", "state": "Missouri", "yelp_rating": null, "longitude": -90.22073676, "latitude": 38.6348785}, {"name": "West East Brewing Co", "brewery_type": "contract", "city": "Cleveland", "state": "Ohio", "yelp_rating": null, "longitude": -81.7140045, "latitude": 41.4799605}, {"name": "West Seattle Brewing Co", "brewery_type": "micro", "city": "Seattle", "state": "Washington", "yelp_rating": null, "longitude": -122.3776296, "latitude": 47.5643605}, {"name": "West Seattle Brewing Co (TapShack)", "brewery_type": "micro", "city": "Seattle", "state": "Washington", "yelp_rating": null, "longitude": -122.406811, "latitude": 47.580335}, {"name": "West Side Brewing", "brewery_type": "micro", "city": "Cincinnati", "state": "Ohio", "yelp_rating": null, "longitude": -84.598433, "latitude": 39.14890246}, {"name": "Whiner Beer Company", "brewery_type": "micro", "city": "Chicago", "state": "Illinois", "yelp_rating": null, "longitude": -87.6606688, "latitude": 41.810614}, {"name": "Whistle Punk Brewing Company", "brewery_type": "micro", "city": "Spokane", "state": "Washington", "yelp_rating": null, "longitude": -117.4267386, "latitude": 47.6564232}, {"name": "White Labs Tasting Room", "brewery_type": "micro", "city": "San Diego", "state": "California", "yelp_rating": null, "longitude": -117.121435, "latitude": 32.895843}, {"name": "Wicked Wort Brewing Company", "brewery_type": "brewpub", "city": "Minneapolis", "state": "Minnesota", "yelp_rating": null, "longitude": -93.3025381, "latitude": 44.9996613}, {"name": "Widmer Brothers Brewing", "brewery_type": "regional", "city": "Portland", "state": "Oregon", "yelp_rating": null, "longitude": -122.6762983, "latitude": 45.54109529}, {"name": "Wiedemann Brewing Co, LLC", "brewery_type": "micro", "city": "Cincinnati", "state": "Ohio", "yelp_rating": null, "longitude": -84.4746169, "latitude": 39.2072785}, {"name": "Wild Mind Artisan Ales", "brewery_type": "micro", "city": "Minneapolis", "state": "Minnesota", "yelp_rating": null, "longitude": -93.2813885, "latitude": 44.89304675}, {"name": "William K Busch Brewing Co.", "brewery_type": "closed", "city": "Saint Louis", "state": "Missouri", "yelp_rating": null, "longitude": -90.33733442, "latitude": 38.61687711}, {"name": "Wiretap Brewing Corporation", "brewery_type": "micro", "city": "Los Angeles", "state": "California", "yelp_rating": null, "longitude": -118.2220376, "latitude": 34.06852346}, {"name": "Wolf's Ridge Brewing", "brewery_type": "micro", "city": "Columbus", "state": "Ohio", "yelp_rating": null, "longitude": -82.99517953, "latitude": 39.9577586}, {"name": "Woods Boss Brewing Company", "brewery_type": "micro", "city": "Denver", "state": "Colorado", "yelp_rating": null, "longitude": -104.9845374, "latitude": 39.7509153}, {"name": "Woods Cervecer\u00c3\u00ada", "brewery_type": "brewpub", "city": "San Francisco", "state": "California", "yelp_rating": null, "longitude": -122.4285438, "latitude": 37.761163}, {"name": "Working Class Brewery", "brewery_type": "micro", "city": "Cleveland", "state": "Ohio", "yelp_rating": null, "longitude": -81.820461, "latitude": 41.44993}, {"name": "Worthy Brewing Company", "brewery_type": "micro", "city": "Bend", "state": "Oregon", "yelp_rating": null, "longitude": -121.2603915, "latitude": 44.0553542}, {"name": "Wynkoop Brewing Co", "brewery_type": "brewpub", "city": "Denver", "state": "Colorado", "yelp_rating": null, "longitude": -104.9984831, "latitude": 39.7535446}, {"name": "Young Buck Brewing", "brewery_type": "micro", "city": "Spokane", "state": "Washington", "yelp_rating": null, "longitude": -117.4281651, "latitude": 47.655248}, {"name": "Zaftig Brewing Co.", "brewery_type": "micro", "city": "Columbus", "state": "Ohio", "yelp_rating": null, "longitude": -83.0003532, "latitude": 40.1063329}, {"name": "Zilker Brewing Co", "brewery_type": "micro", "city": "Austin", "state": "Texas", "yelp_rating": null, "longitude": -97.7245745, "latitude": 30.2621507}, {"name": "Zoiglhaus Brewing Company", "brewery_type": "brewpub", "city": "Portland", "state": "Oregon", "yelp_rating": null, "longitude": -122.5679347, "latitude": 45.4808905}, {"name": "Zuni Street Brewing Company", "brewery_type": "micro", "city": "Denver", "state": "Colorado", "yelp_rating": null, "longitude": -105.015409, "latitude": 39.7585929}]